,name,latitude,longitude,free_bikes
0,Benjamin Godard - Victor Hugo,48.865983,2.275725,4
1,André Mazet - Saint-André des Arts,48.85375581057431,2.3390958085656166,23
2,Faubourg Du Temple - Republique,48.867872484749,2.3648982158072,33
3,Beaux-Arts - Bonaparte,48.856451985395786,2.334851883351803,17
4,Toudouze - Clauzel,48.87929591733507,2.3373600840568547,4
5,Charonne - Robert et Sonia Delaunay,48.855907555969,2.3925706744194,2
6,Mairie du 12ème,48.840855311763,2.3875549435616,11
7,Square Boucicaut,48.851296433665276,2.325061820447445,28
8,Harpe - Saint-Germain,48.851518815017,2.3436703160405,39
9,Jouffroy d'Abbans - Wagram,48.881973298351625,2.301132157444954,1
10,Guersant - Gouvion-Saint-Cyr,48.88287775178599,2.287667370814871,4
11,Alibert - Jemmapes,48.871044051984,2.3661044619878,2
12,Caumartin - Provence,48.874422773426545,2.3284685611724854,4
13,Cassini - Denfert-Rochereau,48.837525839067,2.3360354080796,11
14,Saint-Sulpice,48.85165383178419,2.3308077827095985,13
15,Raspail - Varenne,48.85314781654488,2.3263905197381973,5
16,Lacépède - Monge,48.84389286531899,2.3519663885235786,3
17,Saint-Romain - Cherche-Midi,48.84708159081946,2.321374788880348,11
18,André Karman - République,48.91039875761846,2.3851355910301213,9
19,Pierre et Marie Curie - Maurice Thorez,48.81580226360801,2.376804985105991,2
20,Bois de Vincennes - Gare,48.836022242886884,2.4708339950830287,4
21,Silly - Galliéni,48.835583838706,2.2325500845909,22
22,Place Nelson Mandela ,48.862090937689715,2.196576297283173,3
23,Le Brun - Gobelins,48.835092787824,2.3534681351338,12
24,Gare du Nord - Place de Valenciennes,48.879089,2.354235,3
25,Grande Armée - Brunel,48.876116,2.288124,18
26,Génie - Mozart,48.794902381218904,2.3734183609485626,2
27,Thouin - Cardinal Lemoine,48.84504716661511,2.3494647851273465,1
28,Froment - Bréguet,48.8570414504784,2.37289470306807,36
29,Notre-Dame-des-Champs - Stanislas,48.84479928858768,2.329337755887181,6
30,Morillons - Dantzig,48.83310149953933,2.299380004405976,9
31,Grenelle - Dr Finlay,48.851315406715976,2.2919502854347233,51
32,Chazelles - Courcelles ,48.879406604954,2.3034455627202988,5
33,Croulebarde - Corvisart,48.830981659316855,2.3481646925210953,3
34,Ramponeau - Belleville,48.871031137596,2.379056852114,2
35,Le Brix et Mesmin - Jourdan,48.82234096593411,2.327861653302471,11
36,Romainville - Vaillant-Couturier,48.86785,2.446748,6
37,Général Martial Valin - Pont du Garigliano,48.83823094269141,2.270506024360657,10
38,Liberté - Vert-de-Maisons,48.79014780960843,2.43286281824112,16
39,Porte de Saint-Ouen - Bessières,48.89792240854517,2.32851451022192,6
40,Bir Hakeim,48.853844054333514,2.289705348222022,30
41,Jules Guesde - Pont du Port à l'Anglais,48.79628807093802,2.417212128639221,27
42,Cambrai - Benjamin Constant,48.89594736851349,2.381133802246315,5
43,De Toqueville - Terrasse,48.882428,2.314002,3
44,Michel-Ange - Parent de Rosan,48.840579923690115,2.2584119439125065,1
45,Lagny - Victor Basch,48.84884147189881,2.426325418925233,5
46,Serrurier,48.8804934032465,2.39806417375803,1
47,Théâtre des Amandiers - Palais des sports,48.892648526839,2.2136941552162,11
48,Louis Lejeune - Barbès,48.81807418981508,2.3267009854316716,4
49,Vaugirard - Monsieur le Prince,48.848951441614,2.3411329463124,20
50,Rond-point du Dr Albert Schweitzer,48.78980918988166,2.3143940046429634,1
51,Boétie - Ponthieu,48.871417284355,2.3076787590981,12
52,Custine - Ramey,48.888735896947,2.3469526693225,2
53,Pyrénées - Ménilmontant,48.8693268535238,2.395084574818611,1
54,Caire - Dussoubs,48.86785342111862,2.349364310503006,12
55,Tour d'Auvergne - Rodier,48.879161,2.343698,1
56,Assemblée Nationale,48.86141101465194,2.320121418520769,31
57,Dunkerque - Alsace,48.879355,2.358379,1
58,Liard - Amiral Mouchez,48.8214169,2.342167,4
59,Gabriel Lamé,48.8351212784276,2.385534569621086,32
60,Las Cases - Bourgogne,48.85909110474066,2.3185685276985173,8
61,Félix Ziem - Armand Gauthier,48.88949630486821,2.333393658804396,1
62,Jonquière - Docteur Paul Brousse,48.894799816683985,2.318705212173216,12
63,Square Louis XVI,48.87320440102894,2.323658830743138,19
64,Youri Gagarine - Karl Marx,48.78448485079149,2.35908430069685,1
65,Octave Feuillet - Albéric Magnard,48.86106902949534,2.2730283066630363,3
66,Ney - Porte de Clignancourt ,48.8978867,2.3458001,5
67,Gay Lussac - Saint-Jacques,48.844730256132095,2.341923944866407,11
68,Place Jean-Spire-Lemaître,48.8468428626593,2.452062070369721,11
69,Place Georges Guillaumin,48.874750203956566,2.301771435325988,5
70,Bellefond - Poissonnière,48.87759897050706,2.348463758826256,1
71,Jean Oestreicher - Porte de Champerret,48.88655580065981,2.288640439510346,7
72,Alexandre Parodi - Quai de Valmy,48.87935941942529,2.366596162319184,3
73,Ségur - d'Estrées,48.851419978983,2.3097044974566,4
74,Granges aux Belles,48.8761373390584,2.3680844979417,3
75,Regnault - Patay,48.82435782216384,2.377065159380436,40
76,Gare Saint-Lazare - Place de Budapest,48.877753,2.327339,21
77,Edgar Quinet - Raspail,48.83940266673835,2.32971478253603,7
78,Clignancourt - Ordener,48.891457726153774,2.348636478060487,5
79,Dunkerque - Rocroy,48.880726,2.351464,2
80,Abbeville - Faubourg Poissonnière,48.879223,2.349147,3
81,Boulangers - Cardinal Lemoine,48.8462904,2.3521495,12
82,Boudreau - Auber,48.87219,2.329423,13
83,Gare de l'Est - Faubourg-Saint-Martin,48.875642647477,2.3594588041306,4
84,Pereire - Ternes,48.87973954830735,2.288012132048607,10
85,Douai - Bruxelles,48.88320784122797,2.3308449949028507,2
86,Champ de Mars - Cler,48.856691550115315,2.306646779179573,34
87,Quai de l'Horloge - Pont Neuf,48.857058739111,2.3417982839439,12
88,Gare Saint-Lazare - Isly,48.874777677621296,2.326515804784655,5
89,Ambroise Rendu - Porte Brunet,48.883667,2.395733,6
90,Gare de Lyon - Place Louis Armand,48.845515089794,2.3726498446286,52
91,Institut de France,48.85761567856468,2.335831353037739,6
92,Porte Pouchet-Bessières,48.8978765,2.3230632,8
93,Vigée-Lebrun - Anselme Payen,48.838683941628375,2.3110422492027287,6
94,Institut du Monde Arabe - Saint-Germain,48.849063299501,2.3558086529374,37
95,Octave Gréard - Tour Eiffel,48.856502977696,2.2931787543289,29
96,Château - République,48.862923800596,2.4155035614967,3
97,Chartres - La Charbonnière,48.8847601,2.3534657,2
98,Lisbonne - Monceau,48.87745567681383,2.309694221419506,4
99,Moncey - Blanche,48.88006587474148,2.3310810327529907,7
100,Rochechouart lamartine,48.876719895109,2.344393021853951,5
101,Jemmapes - Ecluses Saint-Martin,48.87748519186726,2.3660067468881607,6
102,Thionville - Ourcq,48.88917613743794,2.3833653330802917,0
103,Gare du Nord - Hôpital Lariboisière,48.881949,2.352339,12
104,Legendre - Clichy,48.88896161855884,2.322528975094376,3
105,Quai de la Seine,48.884492238407525,2.3703941702842717,2
106,Cité Riverin - Château d'Eau,48.870702423554306,2.358739863900845,6
107,Mutualité,48.848225572724,2.3502873256803,25
108,Rossini - Laffitte,48.87334627510507,2.337980867701675,10
109,Pyrénées - Emmery,48.872010281270974,2.392039597034455,1
110,Diderot - Reuilly,48.847208456061,2.3861273378134,37
111,Saint-Ambroise - Parmentier,48.862147844548,2.3772348091006,6
112,Belidor - Gouvion-Saint-Cyr,48.88022154052015,2.2854680567979813,18
113,Place Balard,48.836395736424,2.2784192115068,21
114,Place de Rhin et Danube,48.88192765861766,2.392586767673493,3
115,Roquette - Thiéré,48.85507930579506,2.3733686318721463,15
116,Berri - Haussmann,48.874746047357135,2.3082953318953514,5
117,Saint-Maur - Roquette,48.858688774062955,2.383553994571467,10
118,11 Novembre 1918 - 8 Mai 1945,48.80889533774377,2.5382421165704727,9
119,Place Du Général De Gaulle,48.8687591,2.4329931,0
120,Exelmans - Versailles,48.84097491091973,2.264390252530575,19
121,Pereire - Rennequin,48.88364782887555,2.2952447086572647,5
122,Port-Royal - Hôpital du Val-de-Grâce,48.837668272811,2.3448138346607,8
123,Claude Decaen - Cannebière,48.83761417037952,2.397253782195704,13
124,Gare d'Austerlitz,48.842524,2.364044,10
125,Desaix - Edgar Faure,48.852804604940296,2.293077029857222,7
126,Delphine Seyrig - Général Leclerc,48.893923963057865,2.39790290594101,4
127,Panthéon - Valette,48.84702057165222,2.3464982619671075,15
128,Cimetière de Montrouge,48.822009,2.322188699,3
129,Square Simon Bolivar,48.8750898883217,2.3826304078102116,4
130,Récollets - Square Villemin,48.875034655883944,2.359801238597928,2
131,Amelot - Saint-Sébastien,48.86114216276092,2.367799618107727,19
132,Saint-François-Xavier,48.85154484769,2.3146149516106,35
133,Place Marcel Cachin,48.81411442356866,2.39090770483017,20
134,Pyramide - Ecole du Breuil ,48.82237977153955,2.4586871266365056,17
135,Liège - Moscou,48.8795431,2.3264628,4
136,Mairie de Montreuil,48.86131452758348,2.440614402294159,9
137,Richard Lenoir - Republique,48.8667175,2.3692541,19
138,Fabre d'Eglantine - Place de la Nation,48.8471116,2.3956204,14
139,Cimetière de Montmartre,48.886472466141925,2.3328901827335358,2
140,Marne - Germain Dardan,48.81154270401601,2.303070724010468,4
141,Bagnolet - Orteaux,48.85708641027236,2.3984125256538396,1
142,Anatole France - President Roosevelt,48.9155156,2.3814103,15
143,Henry Farman,48.83372430280548,2.2713854536414146,14
144,Jourdain - Place des Grandes Rigoles,48.87403113727167,2.38959476351738,0
145,Rocher - Laborde,48.87590240712654,2.322616316378116,7
146,Fontenay - Libération,48.84780306364685,2.445141971111298,1
147,Grands Moulins de Pantin,48.89738369720229,2.3959985375404362,11
148,Gambetta - Saint Fargeau,48.871244610447015,2.4039056897163396,1
149,Cimetière de Fontenay-sous-Bois,48.84706173362218,2.4787822365760808,1
150,Gabriel Péri - Francisco Ferrer,48.88633710236977,2.407338917255402,8
151,Place de la Reine Astrid,48.86492098253841,2.302549182385926,29
152,Lucie Aubrac - Fort,48.818144834008976,2.271184623241425,2
153,Pajol - Place Herbert,48.8927825,2.3635598,14
154,Fédération - Suffren,48.852828153442346,2.2978776320815086,15
155,Hôpital Européen Georges Pompidou ,48.83769531916335,2.275374233722687,63
156,Concorde - Stalingrad,48.7985844,2.3821302,7
157,Carducci - Place Hannah Arendt,48.877436681515796,2.3860743641853337,1
158,Saint-Jacques - Val de Grâce,48.8417514,2.3413893,8
159,Manin - Carrières d'Amérique,48.88467214209463,2.3919698596000676,4
160,Victor Hugo - Jeanne Jugan,48.843949064031825,2.415081394834419,5
161,Porte de Vanves,48.828012849445,2.3056878894567,10
162,Place de la République - Voltaire,48.866830968942,2.3654810339212,14
163,Conservatoire de Musique,48.77093586667601,2.4034014344215398,16
164,Gare de l'Est - Fidélité,48.874575,2.356796,3
165,Championnet - Vauvenargues,48.89401874744574,2.3319872841238976,4
166,Buisson Saint-Louis - Saint-Maur,48.87174684930295,2.3722528328789854,7
167,Place Albert Kahn,48.8957969797804,2.345585584134864,1
168,Gare du Nord - Denain,48.879595787608,2.3544725775719,3
169,Lecourbe - Jean Maridor,48.83796366147599,2.2877392172813416,7
170,Grenelle - Violet,48.84993035512154,2.294612042605877,31
171,Repos - Cimetière du Père Lachaise,48.859358523593,2.3896131366845,1
172,Mouton Duvernet - Général Leclerc,48.831632518292565,2.3293121159076686,4
173,Enghien - Faubourg Poissonnière,48.872420063053,2.3483952362828,7
174,Place Robert Guillemard,48.836191728066666,2.2811267160086417,11
175,Raspail - Chomel,48.852233164303094,2.3266580700874333,37
176,Marc Sangnier - Porte de Vanves,48.825218683556734,2.3107116669416428,3
177,Etienne Jodelle - Saint Ouen,48.88794016394694,2.326124420314341,0
178,Marcelin Berthelot,48.8415473058801,2.233161628246308,18
179,Guy Môquet - Etienne Dolet,48.81527009991819,2.298078276995073,1
180,Jean Jaurès - Presles,48.90713441498779,2.396005728053061,10
181,Boissière - Etienne Dolet,48.876111,2.4677312,1
182,Edouard Tremblay - Julian Grimaux,48.781383825117,2.3723508417606,15
183,Bertie Albrecht - Hoche,48.87614039826388,2.301303138307601,1
184,Sibelle - Alésia,48.826701758539215,2.3384983465075493,6
185,Hôtel de Ville de Boulogne Billancourt,48.83495885166784,2.2416803240776066,26
186,Cevennes - Bergers,48.84240765130395,2.281037718057633,15
187,Molière - République,48.81111581390707,2.3145738624448158,2
188,Chevaleret - Tolbiac,48.82941,2.375934,19
189,Hoche - Jean Lolive,48.89110239200789,2.402843534946442,3
190,David Weill - Parc Montsouris,48.821092374256104,2.333725690841675,1
191,Hôtel de Ville de Nanterre,48.892371898250424,2.205548956990242,35
192,Marcadet - Barbès,48.89045112096476,2.349057392968696,3
193,Vaneau - Sèvres,48.84856323305935,2.3204218259345537,10
194,Jean Jaurès - Salvador Allende,48.821475594736775,2.3026576638221745,2
195,François Debergue - Croix de Chavaux,48.857421708072074,2.437578141689301,6
196,Nationale - Place Jules Guesde,48.82753962462998,2.2416052222251897,13
197,Gabriel Péri - Danielle Casanova,48.790114,2.4025777,17
198,Route de la Muette - Porte de Neuilly,48.8798926,2.2587671,43
199,Carnot - Pâquerettes,48.79592939432515,2.4261841177940373,19
200,Tertres - Fontaine,48.787553654715644,2.306235730648041,1
201,Gare Rer de Fontenay sous Bois,48.8436279,2.4630465,7
202,Raspail - Manufacture des Oeillets,48.8094458,2.3903009,2
203,Lucie Aubrac - Franklin,48.86223916006812,2.4435862898826604,10
204,Place de l'Eglise - Vitry-sur-Seine,48.791922819921815,2.395057752728462,26
205,Noisy le Sec - Jean-Baptiste Clément,48.87451538963655,2.415283620357514,1
206,Marcelle - Thalie,48.8835462,2.4137883,3
207,Henri Ste-Claire Déville - Paul Héroult,48.892663,2.172411,18
208,Louis Lumière - Porte de Bagnolet,48.86431136000005,2.4105210229754443,3
209,Paris - Emile Zola,48.854898095789295,2.4186685681343083,14
210,Victor Hugo - Galliéni,48.83802015441127,2.2460845112800603,5
211,Victoire - Chaussée d'Antin,48.875065791004396,2.3316738009452824,12
212,Proudhon - Président Wilson,48.906442763495,2.3584905266762,0
213,Square Georges Melies,48.84070239213081,2.409667745232582,10
214,Galilée - Kléber,48.86741186571367,2.290781380114821,4
215,Richard Lenoir - Jean-Pierre Timbaud,48.86580427668637,2.369337074966926,10
216,Legendre - Dulong,48.885325169402904,2.316423766314984,2
217,Bosquet - Saint-Dominique,48.85865170952645,2.303716580234576,17
218,Place de la Porte de Champerret,48.88561741628322,2.290781411279206,0
219,Chemin Vert - Saint-Maur,48.86112461407359,2.381299026310444,12
220,Quai Panhard et Levassor,48.82837482809675,2.384273745805574,23
221,Square du Théâtre du Garde-Chasse,48.881287375060616,2.420119643211365,7
222,Botzaris - Parc des Buttes Chaumont,48.877951,2.381464,2
223,Faubourg Montmartre - La Fayette,48.87525454905335,2.340853661298752,23
224,Joseph Liouville - Croix Nivert,48.844835471244416,2.297508493065834,13
225,Place Madeleine Daniélou,48.883498,2.282015,8
226,Estrapade - Ulm,48.84512772828039,2.3454568170361734,10
227,Parmentier - République ,48.8644954,2.3750124,17
228,Lieutenant Chauré - Etienne Marey,48.86746195408435,2.405970990657807,1
229,Cujas - Saint-Michel,48.848191348584,2.341831654854,11
230,Flandre - Alphonse Karr,48.89465,2.381868,7
231,Gare de Clamart,48.81383535598703,2.272278964519501,3
232,Larmeroux - Baudelaire,48.816939911292,2.2809894804846,3
233,Jean-François Lépine - Stephenson,48.88611466796807,2.356855627529275,3
234,Messine - Place Du Pérou,48.875448033960744,2.315508019010038,6
235,Beffroy,48.886591074487995,2.261394560337067,14
236,Molitor - Chardon-Lagache,48.84520880183234,2.2656840831041336,9
237,Général De Gaulle - Alouette,48.839109,2.4175664,6
238,Abbé Carton - Plantes,48.827673823165846,2.320918142795563,0
239,Marie-Georges Picquart - Pereire,48.88863669349711,2.3111706599593163,3
240,Sablons - Georges Mandel,48.863875,2.28189,6
241,Gare RER de Vincennes,48.847563015126106,2.433383166790009,25
242,Villette - Belleville,48.8726877314,2.376461327076,10
243,Théophile Gautier - François Millet,48.85034821320644,2.273029983043671,21
244,Edouard Vaillant - Galliéni,48.858462881661,2.4147954583168,0
245,Marché Secrétan,48.88125496379482,2.373463287949562,1
246,Porte Maillot - Pereire,48.877775,2.284444,0
247,Quai de l'Aisne - Général Leclerc,48.895713,2.400571,7
248,Mairie du 11ème,48.858925,2.3789759,23
249,Auguste Cain - Jean Moulin,48.82577028927573,2.3210415244102482,0
250,Volontaire - Lecourbe,48.8435137879902,2.3065522313117985,17
251,Lakanal - Commerce,48.84442462786544,2.294059172272682,42
252,Miromesnil - La Boétie,48.87372241291653,2.315848097205162,20
253,Marseille - Beaurepaire,48.871624306962985,2.3639265082738348,6
254,Mathurins - Auber,48.872988840744,2.3294984212276,20
255,Saint-Germain - Thenard,48.850571,2.3471015,22
256,Square d'Anvers,48.882633484311,2.3448844062122,1
257,Arago - Glacière,48.83486054775774,2.3445770524322067,6
258,Mairie d'Ivry-sur-Seine,48.81057120969284,2.3842826485633855,27
259,Parc Georges Brassens - Brancion,48.83227829269761,2.3022570088505745,0
260,Parmentier - Abel Rabaud,48.86921273836114,2.371688821240712,10
261,Place Paul Eluard,48.7672039733195,2.4144977331161503,13
262,Exelmans - Michel-Ange,48.84309486651855,2.2597770800669053,4
263,Pierret - Madrid,48.882976576876565,2.260125767248034,26
264,Reims - Raymond Pitet,48.8888,2.296319,12
265,Saint-Vincent - Verdun,48.819211549234495,2.254007756710053,17
266,Grand Prieuré - Crussol,48.864660627935,2.3692265531829,9
267,Claude Debussy - Marc Bloch,48.910388180512,2.3117771744728,35
268,Aristide Briand - Gare de Bagneux,48.79387269664978,2.321148812770844,9
269,Parc Roger Salengro,48.905303858642,2.31055945158,18
270,Seine - Flandre,48.886785741479684,2.3746193200349808,4
271,Hautpoul - Jean Jaurès,48.886393679436,2.3865414544355,4
272,Chemin Vert - Fraternité,48.877141208359035,2.4461565166711807,7
273,Laumière - Petit,48.88467368538326,2.380039058625698,7
274,Wilson - Métallurgie,48.909423010092326,2.3584435880184174,12
275,Madame de Sanzillon - Mozart,48.90379820774301,2.3187401890754704,15
276,Mairie du 7ème,48.8577967,2.3192664,16
277,Charonne - Faubourg Saint-Antoine,48.852191909696,2.3740932717919,28
278,Gare Routière de Saint Cloud,48.84288183896324,2.222245037555695,22
279,Gare Arcueil - Cachan,48.799824,2.328171,15
280,Raspail - Bac,48.855628721100935,2.3256602883338933,18
281,Gare RER de Gentilly,48.814280450380224,2.3410347104072575,12
282,Boyer - Ménilmontant,48.86889516267913,2.3919824145634565,0
283,Aristide Briand - Place de la Résistance,48.82124248401006,2.2511002421379094,17
284,Place Jean Ferrat,48.8184945213025,2.3744174838066106,0
285,Villiers de l'Isle Adam - Pyrénées,48.867362,2.396222,2
286,Saint Georges - d'Aumale,48.87778639599673,2.337429821491241,3
287,Stalingrad - Désiré Chevalier,48.85670169739857,2.445072233676911,1
288,Porte d'Ivry,48.82176874759649,2.3688706755638127,7
289,Saint-Jacques - Soufflot,48.8465255,2.343099,0
290,Victor Hugo - Ecoles,48.80476007936134,2.4180373930262093,17
291,Hôpital Bégin,48.84571672113014,2.4272462725639348,5
292,Belleville - Couronnes,48.868831082877,2.3809862136841,3
293,Charenton - Diderot,48.846171461187,2.3793068155646,12
294,Stephenson - Doudeauville,48.888537048944826,2.3561610281467438,10
295,Jules Ferry - Faubourg du Temple Paris,48.868397,2.3678933,16
296,Place de l'Édit de Nantes,48.88879,2.3785,6
297,Anatole France - Louise Michel,48.88873214926474,2.2881576418876652,24
298,Temple - Jean-Pierre Timbaud,48.86446597201,2.3660597205162,29
299,Guynemer - Séverine,48.83091743371036,2.2790706530213356,25
300,Jean Macé - Faidherbe,48.85337548426,2.3828620836139,18
301,Gaston Roussel - Commune de Paris,48.89432034553156,2.432552274419542,2
302,Bienfaisance - Place de Narvik,48.87660163459077,2.3129771277308464,7
303,Montgallet - Charenton,48.842647778701,2.3861649278137,12
304,Place Jacques Madaule,48.823933787309,2.2606918215752,13
305,Bourse du Travail,48.868976638826,2.3623438552022,10
306,Jacques Callot - Mazarine,48.85528017533187,2.337574325501919,12
307,Parmentier - Hôpital Saint-Louis,48.87137987425661,2.369896383666685,21
308,Richard Wallace - Place du 8 Mai 1945,48.87866794788021,2.2420343756675725,13
309,Faustin Hélie - Desbordes-Valmore,48.859403,2.276522,5
310,Quai aux Fleurs - Pont Saint-Louis,48.85291595620935,2.352195717394352,18
311,Porte de Vincennes,48.846454,2.415514,3
312,Flandre - Riquet,48.888013281448,2.3737595955229,0
313,Place de la Porte de Châtillon,48.8242469,2.3186306,5
314,Montreuil - Gonnet,48.850500564921,2.3890856287864,12
315,Dupleix - du Guesclin,48.85147910413369,2.296709530055523,38
316,Montgallet - Reuilly,48.844291,2.3896481,2
317,Varenne,48.8572026618033,2.315277121961117,7
318,Place des Ternes.,48.878438631226516,2.297727763652802,5
319,Ancien Canal - Hélène Brion,48.89484799296163,2.4188338592648506,2
320,Departement - Pajol,48.886674849730184,2.3613611608743668,6
321,Boulets - Voltaire,48.85218705621,2.3890301585197,10
322,Fragonard - Porte de Clichy,48.894155633419,2.3143893107772,34
323,Lacuée - Lyon,48.849268481958,2.3704585433006,13
324,Jardin d'Acclimatation,48.878772242510465,2.270772233605385,26
325,Gare Montparnasse - René Mouchotte,48.83920384329242,2.320883944630623,11
326,Charles de Gaulle - Jean Lolive,48.8932644350857,2.4126765131950383,7
327,Paul Vaillant Couturier - Chaptal,48.89347957618252,2.277525365352631,10
328,Place de la Fraternité,48.85716405838368,2.422847449779511,4
329,Vincent Auriol - Louise Weiss,48.834001935501,2.3703888058662,17
330,Gare de Laplace,48.80893199114179,2.3349460959434514,14
331,Bayen - Pereire,48.881804409079656,2.2921088710427284,4
332,Quai de la Loire - Jean Jaurès,48.88339733854529,2.371074522980134,1
333,Gare de Lyon - Roland Barthes,48.84395729494058,2.3790882155299187,52
334,Route de Sèvres - Porte de Bagatelle,48.87525984132485,2.249415814876557,49
335,Commandant Rivière,48.872933,2.309796,10
336,Gare de Pont-Cardinet,48.88713901475306,2.314494143994255,13
337,Bordier - Félix Faure,48.90390751882016,2.3830059170722966,21
338,Jussieu - Fossés Saint-Bernard,48.84718551002347,2.3534858599305153,30
339,Charonne - Avron,48.85160266522164,2.398403047037931,2
340,Félix Faure - Sadi Carnot,48.90812110228388,2.378623187541962,8
341,Square Cambronne,48.847566545259745,2.3025691509246826,53
342,Lemercier - Cardinet,48.890097168851746,2.317377626895905,6
343,18 juin 1940 - Buzenval,48.868807,2.185428,10
344,Porte de la Villette,48.89835196548483,2.386150136590004,3
345,Ouest - Château ,48.83617286014242,2.319392143923804,1
346,Place aux Étoiles,48.91835629408464,2.3523425683379173,13
347,Flandrin - Henri Martin,48.8643275,2.2724174,5
348,Alexandre Dumas - Voltaire,48.852888670365,2.3891476408096,14
349,Jean Colly - Tolbiac,48.827817291597846,2.3705490678548813,7
350,Pirogues de Bercy - Libourne,48.832308,2.38637,20
351,Place Jean-Baptiste Clément,48.81240466867336,2.3617091774940495,5
352,Verdun - Place Henri IV,48.870797375639214,2.2277003154158592,7
353,Picpus - Louis Braille,48.839988788912,2.4005256685521,25
354,Porte d'Auteuil,48.8479394142243,2.2608396783471107,13
355,Sarrette - Général Leclerc,48.825030852925,2.3264128693982,3
356,Dugommier,48.838811048815,2.3896577954292,24
357,Réunion - Avron,48.852566752033766,2.403928068708116,9
358,Bastille - Biscornet,48.851355779579,2.369220033288,58
359,Square des Saint-Simoniens,48.8701796,2.3967273,0
360,Petit - Manin,48.88650687534334,2.3938155401308374,2
361,Place des Marseillais,48.82663907252554,2.4059280753135686,10
362,Charenton - Wattignies,48.83667579640627,2.391795855555629,22
363,Gare Rosny-Bois-Perrier,48.88115023337061,2.480436824262142,32
364,Chanzy - Sud-Est,48.888912037698766,2.195632159709931,14
365,Jussieu - Guy de la Brosse,48.845665,2.355653,40
366,Gabrielle Josserand - Edouard Vaillant,48.90271566255436,2.3933270573616032,7
367,Square René Viviani - Montebello,48.851904891406384,2.347842156887055,20
368,Jean Lolive - Parc Stalingrad,48.89206174403158,2.4091735482215886,9
369,Courcelles - Place des Ternes,48.878199928923124,2.2992860188665043,6
370,Cambronne - Villa Croix Nivert,48.845847561366,2.3017574474216,19
371,Victor Hugo - Magasins Généraux,48.903281401126755,2.368072383105755,9
372,Gare Saint-Lazare - Cour du Havre,48.875674400851,2.3265598341823,18
373,Guichet - Jean Jaurès,48.905169868129036,2.3023840785026555,20
374,Evariste Galois,48.87308753734472,2.4133380129933357,6
375,Claude Bernard - Arbalète,48.83976676978202,2.347510904073715,12
376,Rapp - Place du Général Gouraud,48.858102885107,2.3004072904587,23
377,Edgar Quinet - Gaité,48.84116092896631,2.32459545135498,10
378,Place Carnot,48.85593932186797,2.441531717777252,8
379,Gravelle - Route du Bac,48.824407,2.418455,3
380,René Boulanger - Lancry,48.8685433,2.3600032,20
381,Ceinture du Lac Inferieure - Saint-Cloud,48.86218070933143,2.2617871686816216,14
382,Anatole France - Jean Lolive,48.8949922,2.4253764,5
383,Boyer-Barret - Raymond Losserand,48.83329880233322,2.3173383995890617,1
384,Piat - Parc de Belleville,48.87195626635528,2.384981390278095,6
385,Lagny - Joffre,48.84930687084088,2.417949736118317,4
386,Parc Monceau,48.881077914129,2.3095492646098,3
387,Porte d'Orléans,48.8227639,2.3249313,15
388,Place Falguière,48.83629973941847,2.3104464635252953,1
389,Vignerons - Minimes,48.841486,2.430793,8
390,Emeriau - Place de Brazzaville,48.850785261674964,2.2871585190296173,39
391,Ecole Militaire - Place Joffre,48.852060203582795,2.301799356937409,18
392,Gare d'Austerlitz - Quai Saint-Bernard,48.84369030864,2.3657163977623,0
393,Sommerard - Saint-Jacques,48.850310432924466,2.345015835298588,31
394,Tardieu - Chappe,48.884146759782,2.341845408082,0
395,Petites Ecuries - Faubourg Poissonnière,48.87397217237368,2.348388757504776,2
396,Gare de Bercy,48.839794573906,2.3826066032052,15
397,Pierre Ginier - Clichy,48.8867667,2.326228,2
398,Batignolles - Place de Clichy,48.88347453575669,2.326493114233017,4
399,Francoeur - Marcadet,48.89104123261663,2.340014585442034,2
400,Henri Chevreau - Couronnes,48.87033205312931,2.388777695596218,4
401,Pascal - Claude Bernard,48.839061952159746,2.3499782010912895,39
402,Place Valhubert,48.844182577315,2.3640366643667,33
403,Lamennais - Washington ,48.87352990026496,2.303444892168045,7
404,Lauriston - Copernic,48.86926,2.289918,1
405,Pierre Grenier - Pont de Billancourt,48.8258020742942,2.2487989068031315,6
406,Vasco de Gama,48.83671783466264,2.283664085650799,40
407,Bineau - Louise Michel,48.88666162206972,2.2843274474143986,9
408,Professeur René Leriche - Général Leclerc ,48.90782845483013,2.307887971401215,48
409,Bara - Henri Farman,48.833218027457846,2.2677567601203923,35
410,Carrefour Pleyel,48.92034156960326,2.3438543826341625,16
411,Navier - Epinettes,48.89587780769155,2.3226776719093327,0
412,Ledru-Rollin - Charonne,48.85345855607243,2.3772463581947094,29
413,Parc de Belleville - Julien Lacroix,48.8703459,2.3842214,6
414,Batignolles - Abel Truchet,48.88310390458221,2.323834749088381,2
415,Gare de l'Est - Verdun,48.87615605427147,2.360914908320552,4
416,Charenton - Place du Col Bourgoin,48.844867319554,2.3825789350545,14
417,Morice - Général Leclerc,48.90245471981591,2.3128929734230046,12
418,Lucien Sampaix - Récollets,48.874330377560476,2.3621229082345963,5
419,Place Jean Delay,48.823316,2.354336,2
420,Pont de Levallois-bécon ,48.8984179,2.2791311,18
421,Place Violet,48.84487893836502,2.2905756533145905,20
422,Jonquoy - Didot,48.82890454823947,2.31648076325655,2
423,Place du Général de Gaulle,48.8525288,2.4877332,14
424,Quai Voltaire,48.85894298617901,2.331418204714572,32
425,Dunois - Clisson,48.832294,2.3674523,12
426,Edouard Vaillant - Paul-Adolphe Souriau,48.83484585882868,2.2479459643363957,7
427,Michelet - Assas,48.84274150283194,2.335021197795868,5
428,Porte Dorée,48.8354337,2.4077132,16
429,Félix Faure - Lourmel,48.83868901709515,2.2818081825971603,46
430,Belleville - Porte des Lilas,48.87660391892763,2.404769691129476,7
431,Haxo - Surmelin,48.8694370761222,2.40539657537972,0
432,Gare de l'Est - Place du 11 Novembre 1918,48.876327,2.3585464,4
433,Porte de Clignancourt.,48.897488,2.343996,2
434,Primo Levi - Frigos,48.83094844846017,2.37965351592796,32
435,Place Alphonse Deville,48.850188262662,2.3275961726904,9
436,Hôtel de Ville d'Argenteuil,48.946504,2.2496396,16
437,Mézières - Rennes ,48.85023459321703,2.3303819820284843,29
438,Place Adolphe Cherioux - Vaugirard,48.83959442800459,2.3010657727718353,20
439,Charles de Gaulle - Madrid,48.884432270368,2.2608044743538,17
440,Tanger - Place du Maroc,48.8862524447104,2.3689296841621403,7
441,Ménilmontant - Pelleport,48.87068263384462,2.398959602331646,1
442,Vincennes - Douy-Delcupe,48.85493692155721,2.436049282550812,10
443,Place du Cornillon - Stade de France,48.92540695835961,2.3644426837563515,2
444,Belfort - Voltaire,48.8563358,2.3829901,13
445,Porte de Saint-Ouen - Henri Huchard,48.898708366365064,2.3295360803604126,20
446,Place du Maréchal Juin - Péreire,48.885263,2.298286,4
447,Victoria - Place du Chatelet,48.857992591527,2.3469167947769,21
448,Vinaigriers - Magenta,48.8731167,2.3593052,6
449,République - Danton,48.85249172181667,2.462034523487091,0
450,Colonel Monteil - Brune,48.82650293311,2.3092747998272,1
451,Gare d'Asnières sur Seine,48.90636459217474,2.2835066914558415,21
452,Verdun - Adrien Damalix,48.8222334178559,2.4215328320860863,11
453,Milton - Manuel,48.878249,2.341181,2
454,Edouard Pailleron - Simon Bolivar ,48.87979886049996,2.374839261174202,0
455,Mac-Mahon - Brey,48.877532084130166,2.294512536052928,5
456,Eglise d'Auteuil,48.84749841771691,2.26848387135299,6
457,Lepic - Armée d'Orient,48.88753640381415,2.334307730197907,3
458,Jean Jaurès - Jean Baptiste Clément ,48.84576261454011,2.2369650006294255,14
459,Château - Bineau,48.890404028589806,2.270106375217438,6
460,Courcelles - Pierre Demours,48.883769733273496,2.29858466343129,3
461,Mairie du 18ème,48.892939296937605,2.3445510864257812,1
462,Bridaine - Lamandé,48.8862074,2.3206239,3
463,Porte de Ménilmontant,48.8691543609174,2.40932246879487,1
464,Laffitte - Italiens,48.871815737396304,2.337201547845077,19
465,Place Lafayette,48.829654975522,2.2638675570488,45
466,Indre - Prairies,48.86254398506782,2.403290458023548,0
467,Université Paris Dauphine,48.870707839985,2.2748656198382,0
468,Lourmel - Marie Skobtsov,48.844974,2.287283,17
469,Belleville - Télégraphe,48.8756045,2.3995549,1
470,Danton - Serpente,48.85229736258167,2.3414132371544834,14
471,Cité des Sciences et de l'Industrie,48.89659571178903,2.384599149227142,4
472,Place de Verdun,48.8202823,2.473775,35
473,Square des Epinettes,48.89383909781389,2.325953990221024,4
474,Les Planètes ,48.8099849920804,2.4580853059887886,11
475,Chabrol - d'Hauteville,48.87701838803332,2.3513179644942284,1
476,Square du Carrefour de l'Insurrection,48.820864559770676,2.291113436222077,3
477,Square Saint-Ambroise,48.860934,2.375841,7
478,Hameau Fleuri - Marché,48.831448892608314,2.2412404417991643,14
479,Pajol - Riquet ,48.88960028134536,2.3628534749150276,7
480,Lassus - Delouvain,48.87550448459959,2.3890327325518528,0
481,Emile Blemont - Poteau,48.8943782,2.3415122,1
482,Jean Bleuzen - Square du 11 Novembre,48.8232579,2.2965213,0
483,Orteaux - Mouraud,48.85558642847872,2.408762907764669,8
484,François Ponsard - La Muette ,48.8583666,2.2744515,4
485,Provence - Chaussée d'Antin,48.87428447542072,2.332976511564311,17
486,Ledru-Rollin - Place du Père Chaillet,48.856433706943704,2.379020587761426,24
487,Assas - Vaugirard,48.848274111398,2.3292413726449,18
488,Pelleport - Belgrand,48.86500081847653,2.403980836377493,4
489,Ordener - Poissonniers,48.891213890844654,2.351288666219873,2
490,Place Etienne Pernet,48.84243457133779,2.2921819612383847,31
491,Mairie du 10ème,48.872089449907,2.3575825989246,9
492,Porte d'Aubervilliers,48.89859661942376,2.3689722642302513,26
493,Sadi Carnot - François Mitterrand ,48.87532687671517,2.4241617321968083,3
494,Bellefond - Maubeuge,48.878255397645,2.3452642187476,3
495,Théâtre - Lourmel,48.8482070397636,2.2898658737540245,37
496,Aubervilliers - Curial,48.89088305227546,2.3688579350709915,2
497,Champs-Elysees - Bassano,48.87181180781605,2.3002389818429947,0
498,Balard - Montagne de la Fage,48.83850740333351,2.2782871127128606,35
499,Place Pasdeloup,48.862654215631,2.3670325062844,19
500,Méchain - Faubourg Saint-Jacques,48.83586772099485,2.33798034198275,7
501,Stade Auguste Delaune,48.80896378683884,2.4345204234123234,12
502,Maison de Radio - France,48.85132886434057,2.277785539627075,24
503,Square Léon,48.88667396788626,2.353205569088459,0
504,Jean-Baptiste Pigalle - La Bruyere,48.87939826447722,2.333709173337285,3
505,Transvaal - Charles de Gaulle ,48.848280403628806,2.2373420120857195,7
506,Belliard - Damrémont,48.89669238777841,2.338023450388167,4
507,Mozart - Jasmin,48.85286124871689,2.268483570651513,17
508,Boulets - Faubourg Saint-Antoine,48.849259262115,2.3917546141943,11
509,Haies - Réunion,48.85386896766491,2.402426162238911,5
510,Maine - Antoine Bourdelle,48.84308531746595,2.320263946784738,2
511,Kléber - Gouverneur Général Eboué,48.826885843069796,2.2723413258790965,20
512,Président Wilson - Jean Jaures,48.89034054052266,2.2920683026313786,9
513,Pyrénées - Maraîchers,48.85714001395299,2.4043509364128113,1
514,Beaujon - Wagram,48.875352455985,2.2964416444302,4
515,Place Jacques Bonsergent,48.870948218595,2.3612049221992,20
516,Naples - Rome,48.879960700846226,2.321358695626259,5
517,Place de Passy,48.85780291711202,2.277500546942199,6
518,Gare RER de Saint-Denis,48.93554324248177,2.3471488058567047,14
519,Pont Neuf - Rivoli,48.860089892617,2.344057559967,12
520,Gare du Nord - Dunkerque,48.880423508429,2.3527636751533,8
521,Lavandieres Sainte Opportune - Rivoli,48.859279702476,2.3466217517853,10
522,Musée d'Orsay,48.85972615790874,2.325860448181629,41
523,Bassano -  Iéna,48.868144510482075,2.296149600985935,6
524,Clichy - Place Blanche,48.883601088297,2.3332237824798,4
525,8 Mai 1945 - 10 Juillet 1940,48.784567029674,2.3979035764933,19
526,Diderot - Pierre Bourdan,48.847648620797,2.3902582749724,11
527,Lallier - Trudaine ,48.88109246617963,2.3408224806189537,0
528,Gare du Nord - Saint-Vincent de Paul,48.880955741648,2.3524305148385,2
529,Pereire - Place de Wagram,48.887070607581215,2.304111124531457,10
530,Traversière - Ledru-Rollin,48.850735824128805,2.375870111706245,21
531,Ménilmontant - Père Lachaise,48.863287291502,2.3869940266013,2
532,Sabot - Rennes,48.852575112948415,2.331552766263485,16
533,Palais des Sports,48.833468517426,2.2858720645308,3
534,Fontainebleau - Edmond Michelet,48.80956436844049,2.3626908659935,4
535,Hôpital Pitié Salpêtrière,48.8377016,2.3604946,15
536,Chernoviz - Raynouard,48.8569864146289,2.282173218142987,9
537,Eugène Oudiné - Dessous Des Berges,48.8256423,2.3750226,25
538,Mont Valérien - Michel Salles,48.8561915,2.2152966,2
539,Place du Moulin de Javel,48.84021670922,2.2716060653329,56
540,Batignolles - Rome,48.881823370566806,2.3202589899301524,2
541,Neuve Saint-Pierre - Beautreillis,48.85355351439652,2.3639122769236565,9
542,Alfred Roll - Berthier,48.88780857052871,2.30009529817631,8
543,Pernety - Raymond Losserand,48.834254627953,2.317609339387,0
544,Gare Montparnasse - Vaugirard,48.8418071798797,2.31951002690117,23
545,Villersexel - Saint-Germain,48.858297001218,2.3237934708595,6
546,Sénat - Condé,48.84954227788459,2.337939441204071,5
547,Granges aux Belles - Hôpital Saint-Louis,48.874794994841274,2.366669436984963,17
548,Parc de Choisy,48.828156251575,2.3585135329033,8
549,Aqueduc - Villette,48.883886063895,2.367198803315,2
550,Belleville - Pyrénées,48.8741908,2.3860039,2
551,Calmette,48.88104925098552,2.424993216991425,3
552,Billancourt - Général Leclerc ,48.8322649,2.2380413,15
553,Manin - Simon Bolivar,48.87649965412676,2.379407362599104,6
554,Greneta - Sebastopol,48.865242333228,2.3516669869423,15
555,Favart - Italiens,48.871446353921,2.3382901058508,11
556,Parvis Corentin Celton,48.82747252522725,2.2784319519996648,49
557,Parc André Citroën,48.840639944296655,2.2780618071556096,39
558,François 1er - Montaigne,48.866887649978096,2.306675575720671,10
559,Roquépine - Malesherbes,48.87345073390807,2.320404499769211,9
560,Bois de Vincennes.,48.8338064,2.4132221,8
561,Surcouf - Université,48.861273016278126,2.309453550914185,39
562,Ney - Charles Hermite,48.89874803977525,2.3645754531025887,19
563,Faubourg Poissonniere - Delta,48.882555807626765,2.3497482016682625,7
564,Saint-Amand - Labrouste,48.834097274832295,2.3087677359581,0
565,Place du Maquis du Vercors,48.877321579493575,2.4083782732486725,9
566,Jeanne Hornet - Girardot,48.873802681432146,2.427820265293122,0
567,Uzès - Montmartre,48.870790980240706,2.3431010171771054,6
568,Duroc - Place de Breteuil,48.847460641142,2.3126140236855,8
569,Vieille du Temple - Francs Bourgeois,48.858256413365815,2.35821794718504,13
570,Gare du Nord - Demarquay,48.881154,2.358411,10
571,Place François Mitterand,48.86492782016328,2.442958317697048,5
572,Hôtel de Ville de Champigny sur Marne,48.813810628405,2.5096759200096,20
573,Place Pigalle,48.8827555,2.3361566,2
574,Bastille - Beaumarchais,48.853833463852,2.3685702681541,20
575,Poissonniers - Nord,48.892511213520656,2.3522228747606277,4
576,Marignan - Champs-Elysées,48.869495661232,2.3066138139003,10
577,Reims - Porte d'Asnières,48.891834448210986,2.300144659954865,6
578,Saint-Jacques - Tombe Issoire,48.833206330538864,2.3369108140468597,5
579,Hôtel de Ville - Pont-Marie,48.85389964552738,2.356947250664234,29
580,Bercy.,48.839966914994,2.3788625746965,10
581,Centenaire - Sorins,48.85853523359734,2.4273508787155156,5
582,Saint-Blaise - Mouraud,48.85696177597818,2.40869477391243,0
583,Romain Rolland,48.820215229662765,2.3234144234418346,4
584,Damrémont - Caulaincourt,48.88714509078738,2.3325880989432335,1
585,Parmentier - Fontaine au Roi,48.86787670551736,2.372705978671471,14
586,Square Desnouettes,48.83476837934194,2.284142297394666,7
587,Brochant - Square des Batignolles ,48.88818698581028,2.316861143151153,8
588,Hôtel de Ville de Levallois Perret,48.89314451997415,2.2888818383216862,7
589,Mairie de Clichy,48.903653634661,2.3059353232384,32
590,Square Raymond Souplex,48.89183721478911,2.335426103165901,0
591,Convention - Saint-Charles,48.84315611111599,2.2831090539693832,14
592,Keller - La Roquette,48.8555508,2.3752778,23
593,Pont de Lodi - Dauphine,48.855296898603285,2.339947307565249,11
594,Thérèse - Opéra,48.86648351450895,2.334433421223788,22
595,Place de Finlande,48.86240833596654,2.311362437903881,13
596,Ney - Porte de Montmartre,48.897918,2.3364872,7
597,Rougemont - Poissonnière,48.871611569354755,2.345873080193996,5
598,Lagny - Auguste Blanqui,48.84922568052601,2.4218603968620305,7
599,Mairie du 15ème,48.8417762,2.2986539,8
600,Place des Larris,48.8568363,2.4780236,7
601,Manin - Crimée,48.8831217743719,2.3863670602440834,5
602,Nationale - Marcel Duchamp,48.82463749337136,2.3678014799952507,7
603,Franciade - Gabriel Péri,48.93261499331498,2.355954498052597,16
604,Charonne - Philippe-Auguste,48.855603162026,2.39054639062,5
605,Charles Delescluze,48.85242200848887,2.380632497370243,33
606,Paul Doumer - La Tour,48.860116109626574,2.280840481911055,7
607,Poissy - Saint-Germain,48.84969649427,2.3529685288668,19
608,Vistule - Choisy,48.82365543660611,2.3615723848342896,11
609,Gambetta - Michelet,48.85273792380526,2.429966032505036,4
610,Les Juilliottes,48.8043072,2.4437362,18
611,République - Henri Barbusse,48.90661553626751,2.389432489871979,20
612,Jeûneurs - Mulhouse,48.868997,2.346925,17
613,Danielle Casanova - Place Vendôme,48.86826649822326,2.3304839059710503,28
614,Versailles - Claude Terrasse,48.84021933807409,2.263834191152959,32
615,Claude Vellefaux - Sambre et Meuse,48.875022,2.370478,2
616,Faidherbe - Dahomey,48.851358329771806,2.383823134795429,27
617,Fernand Braudel - Vincent Auriol ,48.83637852318147,2.3723404482007027,33
618,Porte Saint-Martin,48.86860172112996,2.35570102930069,14
619,Gare de l'Est - Chateau Landon,48.879305,2.362424,4
620,Place Saint-Ferdinand,48.87815529789739,2.288518047864942,3
621,Le Vau - Maurice Bertaux,48.86803439043193,2.411030612453627,1
622,Place du Canada,48.865346269362675,2.310193787964762,22
623,Arsène Houssaye - Champs-Elysées,48.873409276267,2.2977904602885,8
624,Daunou - Louis le Grand,48.869113,2.332515,14
625,Bleue - Trévise,48.87578906564573,2.347289621829987,12
626,Parc de Sceaux - Centre-Ville,48.7769529826096,2.2957214713096623,24
627,Sorbonne - Ecoles,48.849686566191,2.3434996604919,38
628,Place Mireille Havet,48.850533,2.383756,35
629,Pierre Sarrazin - Saint-Michel,48.85090814639774,2.3421307280659676,19
630,Mornay - Sully,48.84970399548416,2.364460788667202,11
631,Bachaumont - Montmartre,48.86617395079137,2.3449775576591496,24
632,Place Tony de Graaff,48.8181645,2.2458109,15
633,François 1er - Lincoln,48.869517979344,2.3024262188416,3
634,Blaise-Desgoffe - Vaugirard,48.846128877747,2.3242672160268,16
635,Ferrus - Saint-Jacques,48.8313878,2.3408563,13
636,Lamartine - Faubourg Montmartre,48.87661398289084,2.339765690267086,4
637,Mairie du 19ème,48.88256264247959,2.3812624812126164,3
638,Odessa - Départ,48.842885590081,2.3244281485677,15
639,Quai Marcel Boyer - Victor Hugo,48.82255636666729,2.392039597034455,24
640,Jardin Marguerite Long,48.8816985773914,2.2836575657129288,6
641,Place de l'Eglise - Pantin,48.892809461520265,2.4124351143836975,1
642,Melun - Jean Jaurès,48.8837796723475,2.376477420330048,0
643,Suffren - Pérignon,48.84717561492764,2.307052147596786,29
644,Jean Jaurès - Reine,48.84009622558849,2.239872515201569,23
645,Argenson - Château,48.888559314669514,2.2642001509666447,4
646,Square du Bataclan,48.8633762,2.3711327,12
647,Butte aux Cailles - Esperance,48.82758774190948,2.3492151126265526,4
648,Louis Ganne - Davout,48.86338720692607,2.409725748002529,9
649,Roquette - Folie Regnault,48.859246959155485,2.386553623578705,1
650,Vignes - Boulainvilliers,48.856399483950504,2.275240458548069,3
651,Tremblay - Lac des Minimes,48.834131261494356,2.454751655459404,27
652,Terroirs de France - Lheureux,48.83212027074841,2.388618104159832,29
653,Place Marcel Sembat,48.83328865030686,2.2441747784614567,44
654,Censier - Jardin des Plantes,48.84107178161383,2.355475388467312,25
655,Brochant - Clichy,48.89032998912038,2.319730559929781,6
656,René Binet - Porte de Montmartre,48.89905109950848,2.3365534096956253,6
657,Charles de Gaulle - Plateau de Vanves,48.82233088973263,2.298571803412886,6
658,René Coty - Parc Montsouris,48.82479134498032,2.336124926805496,7
659,François Truffaut - Saint Emilion,48.83372354344807,2.386601903271428,35
660,Lac Daumesnil - Saint-Maurice,48.82774555743318,2.4183654785156246,14
661,Montreuil - Voltaire,48.850507011842,2.3930755582745,13
662,Léon - Doudeauville,48.88832421845225,2.353573372638597,1
663,Moulin de la Pointe,48.82092946051445,2.3563179373741145,1
664,Place du 8 mai 1945,48.938882272105374,2.3566243797540665,22
665,Schoelcher - Raspail,48.83681733526843,2.3312794080411474,9
666,Gare de Clichy-Levallois ,48.89679827481989,2.2984680533409123,18
667,Daumesnil - Picpus,48.8374688,2.401765,20
668,Place Charles Vallin,48.835523812041,2.3025986552238,7
669,Le Corbusier - Jean Jaurès,48.83780830557548,2.2408381104469304,25
670,Beaumarchais - Pas de la Mule,48.855580507049,2.3684333673431,17
671,Place Centrale,48.78740167690531,2.2278830409049992,3
672,Mairie du 9ème,48.87326713758289,2.340753448052758,10
673,Jean Moulin - Paul Doumer,48.8622179854695,2.45533436536789,1
674,Boutroux - Porte de Vitry,48.822632,2.377738,43
675,Jules Guesde - Alsace,48.89056627550627,2.295077741146088,5
676,Véron - Lepic,48.88526123395252,2.334559857845307,3
677,Commandant l'Herminier - Gallieni,48.847040552603,2.4160453677177,3
678,Pont De Charenton,48.8179685,2.4199531,17
679,Pierre Brossolette - Adolphe Pinard,48.82177227954821,2.313155829906464,2
680,Station Paris Basketball - Stade Georges Carpentier,48.82048243838136,2.366832196712494,4
681,Gare de Nanterre Ville,48.8950295,2.1957932,36
682,Senard - Charles Blum,48.857315824799,2.221091687679291,3
683,Charles de Gaulle - Orléans ,48.88092225101522,2.271581590175629,12
684,Saint-Fargeau - Mortier,48.87266656122256,2.407912909984589,5
685,Gergovie - Vercingétorix,48.83453413883994,2.313154547426182,2
686,Londres - Amsterdam,48.878034461504,2.3264835409694,0
687,Choisy - Tolbiac,48.82591155587,2.3602393269539,1
688,Mahatma Gandhi,48.876356,2.264205,8
689,Pyramide - Parc Floral,48.837442,2.440452,32
690,Jules Guesde - Laennec,48.87628983900398,2.5006942078471184,0
691,Demi-Lune - Aristide Briand,48.87626381919953,2.4562818557024,5
692,Bois de Vincennes - Porte Jaune,48.838751246689455,2.4605489149689674,15
693,Guy Môquet - Saint-Ouen,48.892777719023975,2.3270335793495183,4
694,Pré Saint-Gervais - Lilas,48.87787062698808,2.39590734243393,2
695,Choron - Martyrs,48.877851443502536,2.3396701365709305,1
696,Sambre et Meuse - Villette,48.874405666217,2.3738072379951,5
697,Place du Président Salvador Allende,48.897307310356055,2.40079153681279,8
698,Square Edmond Pépin,48.883656206899,2.4033531546593,4
699,Clapeyron - Moscou,48.88078819514121,2.324815057218075,4
700,Boussingault - Tolbiac,48.82603516605852,2.342176808004326,6
701,Paul Klee - Place Augusta Holmes,48.838946417408025,2.3704235663952966,37
702,Jacquard - Ternaux ,48.8646605,2.373162,18
703,Alexander Fleming - Belvédère,48.88179064200294,2.4030599377642674,0
704,Honoré d'Estienne d'Ovres - Grilles,48.89056394743836,2.4064831843792427,6
705,Eylau - Trocadéro,48.863354122371,2.2864209115505,11
706,Santé - Arago,48.83507657562064,2.3415737262044938,7
707,Athènes - Clichy,48.878113787876,2.32956021945824,1
708,Paul Barruel - Vaugirard,48.84014918546239,2.3044332861900334,15
709,Longchamp - Place d'Iéna,48.86491723343388,2.2926748171448708,14
710,Parc Suzanne Lenglen,48.833250690537874,2.2765403240919113,45
711,Louis Blanc - Jemmapes,48.879330755297346,2.368448562920093,1
712,Averroès - Aimé Césaire,48.91405323432864,2.412636950612068,18
713,Place de la Montagne du Goulet,48.8443415,2.2773844,7
714,Gare de Lyon - Van Gogh,48.843839785643,2.3704450240357,36
715,Charles Lecocq - Lecourbe,48.84044,2.294867,21
716,Quai de Valmy,48.88126951579429,2.368186041712761,3
717,Place d'Italie - Vincent Auriol,48.831481874467,2.3567550292319,7
718,Square de la rue Pixérécourt,48.8736824,2.3960278,0
719,Place du Front Populaire - George Sand,48.90680713698062,2.364541214992642,17
720,Bastille - Quai de la Rapée,48.84682410855,2.3669364675879,17
721,Auguste Blanqui - Glacière,48.831151602964354,2.3438221961259837,6
722,Mazagran - Pierre de Coubertin,48.816218640260445,2.344226874411106,5
723,Place Fernand Forest,48.849269143835926,2.2818631678819656,26
724,Wurtz - Tolbiac,48.82631195621006,2.344585955142975,16
725,Hôtel de ville de Fontenay-sous-Bois,48.84949749106274,2.4750164151191716,2
726,Pierre Demours - Laugier,48.8813072,2.294846,7
727,Ivry - Simone Weil,48.823283932030755,2.3659095168113713,8
728,Metz - Faubourg Saint-Denis,48.870893,2.353521,37
729,Botzaris - Crimée,48.87959698690176,2.3887913337477067,1
730,Saint-Didier - Raymond Poincaré,48.86642312020962,2.285863497192411,1
731,Pelée - Alphonse Baudin,48.8600265,2.3710541,25
732,Traktir - Foch,48.872755334614,2.2915497802487,3
733,Saint-Lazare - Place d'Estienne d'Orves,48.8768345,2.3329067,4
734,Place Jules Ferry,48.812107928414775,2.325837314128876,10
735,Censier - Santeuil,48.840658921385234,2.3537524044513702,61
736,Cimetière d'Issy-les-Moulineaux,48.81769977392539,2.260931208729744,15
737,Mairie de Neuilly sur Seine,48.88494728765838,2.2677031159400944,18
738,Pierre Levée - Fontaine Timbaud,48.86632723374305,2.3711163550615306,8
739,Gare Montparnasse - Edgar Quinet,48.841487851079,2.3233232282801,16
740,Joseph Sansboeuf - Saint Lazare,48.87531563065266,2.3229019716382027,7
741,Cours de l'Ile Seguin - Parc Billancourt,48.82714055843935,2.234234511852265,14
742,Marcel Yol - Jullien,48.82537611802588,2.287235018058929,9
743,Marc Sangnier - Division Leclerc,48.78599652305309,2.329955510795116,18
744,Convention - Vaugirard,48.83767682233156,2.295586926020252,21
745,Résistance - Hoche,48.864273423741956,2.435784414410591,2
746,Paul Vaillant-Couturier - Gare RER,48.80108159069614,2.402097210288048,19
747,Raffet - Montmorency,48.85258670812,2.2629252456151954,5
748,Commerce - Letellier,48.84797660373612,2.2966245196598805,35
749,Victor Cresson - Telles de la Poterie,48.822698842979,2.2686498274964,27
750,Carnot - Général Lanrezac,48.875443870736,2.2938242935036,0
751,Fessart - Château,48.84245,2.23989,11
752,Jean-Pierre Timbaud - Vaucouleurs,48.867937,2.377885,20
753,Bruneseau - Quai d'Ivry,48.82494563758295,2.388566136360169,39
754,Hôtel de Ville de Fontenay-aux-Roses,48.790844603480856,2.2871455930319455,4
755,Bercy - Villot,48.841795009027,2.3767850184816,30
756,Petites Ecuries - Faubourg Saint-Denis,48.87287120589831,2.3542150855064397,22
757,Brancion - Lefebvre,48.82900222785569,2.301431038163409,3
758,Malesherbes - Place de la Madeleine,48.87040602848252,2.323243509807989,54
759,Temple - Charlot,48.865709343796,2.3652737250724,31
760,Docteurs Déjérine - Pte de Montreuil,48.85398448133697,2.41208288897222,1
761,Cimetière de Boulogne-Billancourt,48.830764,2.252024,10
762,Pontoise - La Tournelle,48.85045800918843,2.352454275492188,15
763,Vanne - Général de Gaulle,48.815007,2.328318,3
764,Charles de Gaulle - Beauté,48.83649602312711,2.479562651149885,9
765,Malakoff - Place de la Porte Maillot,48.876733496637506,2.2834577411413193,0
766,Ranelagh - Maison de la Radio,48.85293603169479,2.280449643731117,22
767,Gare SNCF Vanves-Malakoff,48.819002163836444,2.292150005103606,1
768,Vanne - Saussaies,48.786404,2.338848,3
769,André Maurois - Joseph et Marie Hackin,48.8778983,2.2789591,12
770,Pierre Lefaucheux - Traversière,48.82435208303827,2.2417913004755974,12
771,Vitruve - Davout,48.86053161154489,2.4091592812626543,2
772,Place de l'Insurrection d'Août 1944 ,48.81477852751594,2.398074567317963,25
773,Buzenval - Avron,48.851617204998654,2.401513597307666,5
774,Porte d'Italie,48.817161987718954,2.360236309468746,5
775,Westermeyer - Paul Vaillant-Couturier,48.819116181578764,2.3966637253761296,12
776,Cauchy - Cévennes,48.8433725710224,2.275132834911347,32
777,Amaury Duval - Gabriel Péri,48.81718759671675,2.323841750621796,4
778,Caulaincourt - Place Constantin Pecqueur,48.8896779050281,2.33817871442611,6
779,Charles de Gaulle - Graviers,48.88315175918637,2.2648814320564274,0
780,Paul Signac - Aristide Briand,48.86950262156371,2.4502260982990265,8
781,Hôpital - Campo-Formio,48.835405,2.358218,2
782,Jean Calvin - Tournefort,48.84158856925782,2.348489575088024,5
783,Place de Barcelone - Mirabeau,48.847623027364,2.2735664248466,31
784,Charles Gide - Fort de Bicêtre ,48.8071937956922,2.353984415531159,5
785,Jardin de l'Hospice Debrousse,48.861451061938,2.40568600595,2
786,Place de la Porte de Passy,48.857341095470794,2.2644165538827115,14
787,Batignolles - Beudant,48.88216401466375,2.319852970540523,6
788,Daumesnil - Hébrard,48.8429,2.38474,37
789,Stade de France,48.919141953558054,2.362065576016903,13
790,Place de Lévis,48.883546851533254,2.3131933808326726,3
791,Damrémont - Ordener,48.893400392981874,2.336266523912805,2
792,Arcole - Notre-Dame,48.85388354132773,2.3493797332048416,27
793,La Motte-Picquet - Grenelle,48.84858321339195,2.299347817897797,25
794,Président Wilson - Baudin,48.89826887103676,2.2849336266517644,10
795,Lobau - Hôtel de Ville,48.8562118,2.3532536,43
796,Colmar - Victor Hugo,48.88652251096166,2.173960916697979,25
797,Charonne - Pierre Bayle,48.858445054261914,2.39039812238911,1
798,Jourdan - Monticelli,48.822032,2.329095,9
799,Porte d'Asnières,48.89035817610495,2.3036286234855656,3
800,Gaston Tessier - Rosa Parks RER,48.8963765,2.3743692,11
801,Camille Groult - Guy Môquet,48.787482746521306,2.3976725712418556,11
802,Place de l'Europe - Quai de Bercy,48.82529858840266,2.3945679143071175,12
803,Marché aux fleurs,48.85525811539143,2.3473754525184636,16
804,Assas - Luxembourg,48.84373446877937,2.333428381875887,14
805,Pergolèse - Malakoff,48.87521088779225,2.2842781618237495,6
806,Raspail - Albert Schweitzer,48.81031545,2.34395871,17
807,Jean Jaurès - Ouvrières Pivéreuses,48.91042343752563,2.399576604366303,16
808,Javel - André Citroën,48.846276485475,2.2786368057131767,42
809,Brillat-Savarin - Küss,48.822203,2.350422,15
810,Jacques Kellner - Saint-Ouen,48.895809485802886,2.327897409164145,12
811,Gare de Lyon - Chalon,48.845666194202,2.3741452395916,24
812,Estienne d'Orves - Henri Ginoux,48.815388220397274,2.320886790760933,7
813,Benjamin Delessert - Jean Lolive,48.89392043619345,2.417981922626496,0
814,Paris - Laitières,48.84630274151258,2.4207553267478947,4
815,Louis Pasteur - Albert Petit,48.796261,2.317289,7
816,Bobillot - Paulin Mery,48.829899841747384,2.3543356766748507,6
817,Louis Rolland - République,48.81710889740748,2.3193106434955717,3
818,Emeriau - Beaugrenelle,48.84791249714942,2.2843059897422795,42
819,Faubourg Poissonnière - Dunkerque,48.880883445404436,2.349934279918671,1
820,Jean Moulin - Place Victor et Hélène Basch,48.82764910241,2.3261967301369,1
821,Victor Hugo - La Pompe,48.86795222470859,2.28146318346262,2
822,Place Mongolfier,48.815160030060376,2.4592879414558415,23
823,Gare RER - Malleret-Joinville,48.802936,2.42531,14
824,Place de la Gare,48.80253358011283,2.4275037646293645,37
825,Paris - Désiré Préaux,48.85742876694898,2.4323049187660217,7
826,Italie - Jardin Joan Miro,48.81990914045756,2.3592948541045193,3
827,Monceau - Malesherbes ,48.8795079,2.3145456,4
828,Gare de la Garenne-Colombes,48.909752,2.239145,3
829,Mairie de quartier du Plateau - Mont-Valérien,48.8799933,2.2072437,12
830,Paul Vaillant-Couturier - Victor Hugo,48.89819702263572,2.293848017974069,26
831,La Jarry - Place Diderot,48.849726940367326,2.452013790607453,7
832,Paul Doumer - Stalingrad,48.806518992199,2.3368880152702,18
833,Berthier - Place Stuart Merril,48.885927922355044,2.2933450341224675,17
834,Quai de l'Oise - Aisne,48.8906231,2.3833701,9
835,Goutte d'or - Barbès,48.88512432362698,2.349696233868599,2
836,Charonne - Bureau,48.854176,2.396093,2
837,Square Louise Michel,48.884687354509,2.3441386967897,1
838,Mairie de Clamart,48.800612,2.262151,7
839,Rond-Point de la Chapelle,48.895126609314,2.3599711060524,0
840,Vaugirard - Pasteur,48.84040868803496,2.3154367133975033,11
841,Place Jeanne d'Arc,48.829575,2.369126,9
842,Douai - Pierre Fontaine,48.88229101148092,2.33324121683836,3
843,Bessières - Porte de Clichy,48.89611762451474,2.31790903955698,8
844,Portugais - Kléber,48.8712148,2.2937349,5
845,Maréchal Joffre - Verdun,48.85385,2.470307,2
846,Place Edmond Michelet,48.860134890542,2.3500636965036,1
847,Emile Zola - Fondary,48.847051143113745,2.2953405976295476,24
848,Taitbout - La Fayette,48.87332988919973,2.3352625966072087,11
849,Charles Tillon - Cimetière Communal,48.91844023641836,2.3935630917549138,14
850,Saint-Mandé - Fabre d'Eglantine,48.8453579,2.3965022,10
851,Quai du Président Roosevelt - Pont Aval,48.8343883676388,2.2656820714473724,11
852,Delizy - Louis Nadot,48.896212845581346,2.4094578623771667,10
853,Halles - Bourdonnais,48.860448992575,2.3460162431002,10
854,Île de la Jatte,48.894036161302104,2.2666339203715324,7
855,Centre Georges Pompidou,48.861419,2.352581,5
856,Place Saint-Just,48.790379518724265,2.3895226791501045,12
857,Rochechouart - Martyrs,48.882193779572,2.3405495658517,2
858,La Motte-Picquet - La Tour Maubourg,48.8572316,2.3094136,18
859,Placette Grégoire Collas,48.94342014002797,2.2487476095557213,15
860,Gérando - Rochechouart,48.88294340845,2.3464846238494,2
861,Candale - Mehul,48.8893935006175,2.414379715919495,7
862,Porte des Lilas - Faidherbe,48.87861855668978,2.4120327830314636,18
863,Suffren - Champ de Mars,48.8547194,2.2952168,22
864,Balzac - Olympes de Gouges,48.77850332486751,2.4006786569952965,12
865,Square Bela Bartok,48.85120156830401,2.2846536710858345,16
866,Fort d'Aubervilliers,48.91502382370325,2.4035281687974925,13
867,Gare du Nord - Faubourg Saint-Denis,48.879612765503616,2.3568402975797653,8
868,Saint-Germain - Ciseaux,48.85330527759475,2.334465461882703,8
869,Crozatier - Faubourg Saint-Antoine,48.850440013405,2.378901366211,38
870,Place Nelson Mandela,48.897874318180556,2.2182820737361912,4
871,Hoche - Tilsitt,48.874836457837,2.2971323132515,5
872,Londres - Place d'Estienne d'Orves,48.876693805756986,2.3305362090468407,7
873,Place Ginette Hamelin,48.837853,2.382064,31
874,Pont de Suresnes,48.867415092322,2.2258946679617,0
875,Esplanade du Foncet - Camille Desmoulins,48.827090233494964,2.2606857866048813,19
876,Auguste Blanqui - Corvisart,48.8300989,2.3502726,3
877,Dunkerque - Trudaine,48.88215166773376,2.3463253676891327,3
878,Clichy - Douai,48.88411831886975,2.3287287354469304,3
879,Chemin de Bretagne,48.825147,2.25936,14
880,Joseph Dijon - Ornano,48.89374453351521,2.3476678133010864,3
881,Gare du Stade,48.9312676,2.2603778,9
882,Square Denise Buisson,48.8562322730982,2.426436245441437,5
883,Glacière - Soeur Catherine Marie,48.829522989420596,2.343570403754711,6
884,Place Monge,48.842761803051,2.3524079471827,5
885,Jourdan - Stade Charléty,48.819428333369,2.3433353751898,15
886,Maurice d'Ocagne - General Maudhuy,48.82414282524159,2.3158789426088333,3
887,Vivienne - Montmartre,48.871347597383,2.3414588347077,5
888,Marché Saint-Quentin,48.877356057652,2.3545114456374,1
889,Geoffroy - Marie,48.873781940593325,2.344513876337893,9
890,Toffier Decaux - Cartier Bresson,48.90165072551549,2.4017545580863957,5
891,Place de Rungis,48.82245594764965,2.347382729482953,21
892,Vivaldi - Antoine-Julien Hénard,48.841923663276546,2.389728979467376,1
893,Godot de Mauroy - Madeleine,48.869789,2.326347,22
894,Madagascar - Meuniers,48.83460464474706,2.3970650508999825,7
895,Abbé Groult - Convention,48.83596927866069,2.302064039509349,2
896,Saint-Denis - Rivoli,48.859059340842,2.3476943001151,54
897,Buffon - Jardin des Plantes,48.842668466104875,2.3618587106466293,27
898,Louis Xavier de Ricard - Ancienne Mairie,48.84629899065091,2.472420372068882,4
899,Lebrun - Colonel Fabien ,48.78266870733145,2.381317801773548,11
900,Saint-Antoine Sévigné,48.8550222,2.3612322,20
901,Place Joffre - Frédéric le Play,48.853754486938,2.3044242337346,28
902,Square Etienne Jarousse,48.82485182597129,2.2925933450460434,11
903,Rottembourg - Général Michel Bizot,48.83787825992554,2.4044052511453633,14
904,Sebastopol - Rambuteau,48.86181809267,2.3501381278038,10
905,Cloître Saint-Merri - Renard,48.85883544889818,2.351827919483185,20
906,Gare d'Argenteuil,48.947022436806705,2.256898172199726,28
907,Mairie du 8ème ,48.877932,2.318264,2
908,Jules Guesdes - Général de Gaulle,48.81930581291959,2.278934195637703,7
909,Bibliothèque Nationale - Richelieu,48.868288993515,2.3380893096328,13
910,Marché Saint-Germain,48.85165625855281,2.335500307381153,19
911,Cherche-Midi - Hôpital Necker,48.84461063309956,2.317914068698883,13
912,Charenton - Prague,48.848175129981,2.3763584494312,11
913,Place Aimé Césaire,48.783194713067815,2.2429127991199493,3
914,Bourg l'Abbé - Saint-Martin,48.86393331949257,2.352406270802021,20
915,Hôpital Necker,48.846043490118454,2.313245013356209,19
916,Condorcet - Turgot,48.87985155789093,2.345232367515564,11
917,Dareau - Broussais,48.8307758,2.3361804,7
918,Jean Monnet - Iles,48.823393984057304,2.2497073194874866,29
919,Parc Eli Lotar,48.91844993053703,2.3727085813879967,8
920,Villiers - Batignolles,48.88125253846116,2.31653843075037,5
921,Stalingrad - Rigollots,48.84997403844251,2.45557576417923,5
922,Place Charles Michels,48.846401,2.28502,23
923,Croix Nivert - Square Saint-Lambert,48.8430515215905,2.295200452208519,39
924,Mairie du 14ème,48.83254578123,2.3254923149943,2
925,Benoît Frachon - République,48.85230729014318,2.415605485439301,8
926,Dutot - Place Alleray,48.836826091766,2.3071701095578,7
927,Leredde - Tolbiac,48.82887629664,2.3744382709265,36
928,Jean Jaurès - Jules Jacquemin,48.88433053604843,2.4082902455152104,5
929,Marne - Charles de Gaulle,48.815071719544434,2.4121668934822087,21
930,Saint-Benoît - Jacob,48.85545136013941,2.3334722220897675,14
931,Jardins d'Eole,48.8869703,2.3668488,3
932,Didot - Place de Moro-Giafferi,48.8337,2.3215,0
933,Davout - Volga,48.852919679957296,2.410522909779111,5
934,Porte de la Muette,48.86302317841182,2.2687188170157406,7
935,Landy - Heurtault,48.915096534520316,2.375951372087002,11
936,Paradis - Hauteville,48.874999954666755,2.3522757401923404,14
937,Bruant - Vincent Auriol,48.83484845292942,2.366826499627087,10
938,Place des Droits de l'Enfant,48.8274804,2.3319217,2
939,Richard Lenoir - Place de la Bastille,48.8538327,2.3697222,39
940,Bréguet - Sabin,48.856931678257,2.3706749462105,26
941,Toqueville - Cardinet,48.88490187110713,2.3109393194317818,2
942,Richard Lenoir - Voltaire,48.86164273878,2.3727491497993,17
943,Paul Bodin - Clichy,48.89239614618928,2.317142598330975,2
944,Raymond Poincaré - Place Victor Hugo,48.870306124369975,2.285074541420228,2
945,Hôtel de Ville de Sèvres,48.824363561288756,2.2131047397851944,23
946,Place de la Madeleine - Royale,48.869228052648,2.324421107769,18
947,Porte de Bagnolet,48.864707139122984,2.408344637349607,6
948,Ruisseau - Ordener,48.89299462568024,2.340144887566567,0
949,Ecoles - Carmes,48.848904447989405,2.3473486304283147,24
950,Plantes - Moulin Vert,48.83005755305626,2.3232302069664006,2
951,Crevaux - Bugeaud,48.870809428669546,2.281149007691853,4
952,Artois - Berri,48.87393521240818,2.3064258322119713,2
953,Jules Vallès - Charonne,48.85428437993525,2.384767457842827,10
954,Porte Molitor,48.84524763511433,2.2569015249609947,15
955,Charles Frérot - Albert Guilpin,48.8155839183714,2.3505029082298283,20
956,Cadix - Hameau,48.8340107632249,2.289516180753708,5
957,Reuilly - Place Felix Eboue,48.84030274499962,2.394630398715453,8
958,Gare RER les Grésillons,48.919898633572764,2.31458459136273,18
959,Alfred de Vigny - Place du Général Brocard,48.87836138361425,2.305254448220567,5
960,Cambon - Rivoli,48.866143390992,2.3251800647137,25
961,Jean Mermoz - Champs-Elysées,48.869689856852,2.3107324540615,21
962,Place de la Nation - Picpus,48.846821681548,2.4001130461693,2
963,Poissonniers - Championnet,48.89543299733937,2.3530178144574165,10
964,Flandrin - Longchamp,48.86877849178477,2.274354539176829,11
965,Grande Truanderie - Saint-Denis,48.8626302,2.3498075,19
966,Square Claude Bernard,48.89876016219984,2.375325746834278,6
967,Chevreuse - Montparnasse,48.841739161231,2.3315522167367,5
968,Henri Ravera - Gabriel Péri,48.79722273833844,2.302115857601166,10
969,Perle - Vieille du Temple,48.8601346,2.3611206,25
970,Sèvres - Lecourbe,48.8447677,2.3110086,8
971,Epée de Bois - Mouffetard,48.841508690388835,2.350066713988781,5
972,Claude Vellefaux - Hôpital Saint-Louis,48.87285913900304,2.370071706985146,30
973,Maxime Gorki - Louis Aragon,48.78909814728443,2.368387877941132,9
974,Roger Salengro - Général de Gaulle,48.820029010376956,2.4846760556101803,15
975,Murat - Porte de Saint-Cloud,48.83750862621299,2.2577651962637906,16
976,Gare Montparnasse - Arrivée,48.843827994315,2.3225811123848,15
977,Camille Risch - Paul Armangot,48.774703,2.373685,11
978,Reuilly - Daumesnil,48.8395385,2.3972516,5
979,Place de la Nation - Charonne,48.848364667777,2.3997623859813,4
980,Charentonneau - Maisons Alfort,48.809932980484355,2.443288456496946,16
981,Place des Abbesses,48.884542726149725,2.3386867716908455,1
982,Sorbier - Ménilmontant,48.86854239566069,2.3897721245884895,5
983,Mairie du 16ème,48.863936848471994,2.2765953093767166,5
984,Mairie d'Issy,48.8237677924683,2.27231115102768,37
985,Square Montholon,48.876620377545024,2.3457641154527664,4
986,Louis Lumière.,48.86216198070008,2.41112578185621,9
987,Maine - Liancourt,48.835064363954,2.323731449974,4
988,Pyrénées - Avron,48.853246898211985,2.405871044529538,5
989,Cité Vaneau,48.8542210666207,2.319614924490452,14
990,Leibniz - Jean Dollfus,48.896328348515986,2.333390423834684,5
991,Herschel - Observatoire,48.84342376221923,2.3376645147800446,9
992,Gambetta - Père Lachaise,48.864295696165875,2.398228667282044,1
993,Louis Blanc - La Chapelle,48.884008964514,2.3599335551262,1
994,Gare de Reuilly - Picpus,48.84267354116789,2.3972943797707558,12
995,Pergolèse - Marbeau,48.87356870686902,2.281512522529856,18
996,Porte de Clignancourt - Ney,48.899641123987095,2.344321422278881,25
997,Jourdan - Cité Universitaire,48.819897343156676,2.3397007964124366,5
998,Phalsbourg - Villiers,48.88242307900951,2.3090453445911407,3
999,Parme - Clichy,48.88126642422664,2.328197093450571,2
1000,Beaubourg - Michel-le-Comte,48.862534941806,2.3543103039265,8
1001,Cordelières - Arago,48.83548071896613,2.348572461702221,27
1002,Niger - Soult,48.84369906369085,2.410361237220498,6
1003,Molitor - Michel-Ange,48.845182081538034,2.26211277356597,7
1004,Place du Colonel Fabien,48.87756832086,2.3698791861534,3
1005,Gare Saint-Lazare - Stockholm,48.877127316667654,2.322417162358761,4
1006,Turbigo - Française,48.86358858111446,2.3477794602513313,14
1007,Centquatre,48.88933353845543,2.3707854375243187,6
1008,Place de l'Europe - Alfortville,48.78913702405837,2.4284800887107854,12
1009,Emile Reynaud - Porte de la Villette ,48.90098953630053,2.3887022584676743,15
1010,Turbigo - Réaumur,48.86557404753054,2.3564198613166814,14
1011,Bargue -  Dutot,48.837884,2.308876,7
1012,Chausson - Gabriel Péri,48.921891003481115,2.2952306270599365,14
1013,Beaumarchais - Saint-Gilles,48.8580378,2.3679352,40
1014,Pyrénées - Plaine,48.85026702458,2.4062821269035,6
1015,Louis le Grand - Italiens,48.870508937203915,2.334054461939329,22
1016,Charenton - Jardiniers,48.833821772922654,2.394692664106047,8
1017,Porte de Pantin.,48.889199725577,2.3950181901455,8
1018,Lucien Lanternier - Le Luth,48.93159430558871,2.2889783978462224,23
1019,Archives - Rivoli,48.857346707443,2.3539767041802,6
1020,Frères Flavien - Porte des Lilas,48.8780992764359,2.41104629853209,11
1021,Sainte-Elisabeth - Turbigo,48.86610337431042,2.359649240970612,25
1022,Joffre - Aigle,48.904033,2.245096,4
1023,Française - Etienne Marcel,48.864053304653766,2.347587011754513,27
1024,Maurice Payret-Dortail,48.87811957063342,2.2233625128865246,4
1025,Nationale - Vincent Auriol,48.83252708397293,2.362354410392119,5
1026,Etienne Marcel - Montorgueil,48.86450567259199,2.3461959511041637,17
1027,Square Emile - Chautemps,48.867433724231,2.3536357283592,20
1028,Cléry - Montmartre,48.867458,2.3445211,15
1029,Montmartre - Etienne Marcel,48.865021945810085,2.345068440144759,6
1030,Solitaires - Place des Fêtes,48.876601,2.391769,0
1031,Temple - Haudriettes,48.861636880211584,2.356696020645806,18
1032,Saint-Denis - Réaumur,48.8661116315789,2.3507790675507594,20
1033,Gare d'Austerlitz - Pont Charles de Gaulle,48.842319830109304,2.3670300096273422,15
1034,Didot - Mariniers,48.82650543613106,2.313136198271666,3
1035,Olivier de Serres - Leriche,48.83460221715206,2.2957482933998112,1
1036,Mairie du 3ème,48.86446178139141,2.361762821674347,23
1037,Gardenat-Lapostol - Velettes,48.87387,2.224185,2
1038,Blancs-Manteaux - Archives,48.85941800703,2.3559471219778,13
1039,Adolphe Pinard - Victor Hugo,48.8236825874564,2.3077843710780144,8
1040,Bézout - Général Leclerc,48.82884804502439,2.3285973072052,2
1041,Hôtel de Ville d'Asnières sur Seine,48.90999330025577,2.288238108158112,27
1042,Place de la République - Temple,48.867211201859,2.3635464370545,18
1043,Gare du Nord - La Chapelle,48.884178287286,2.3561057075858,7
1044,Quai des Célestins - Henri IV,48.8512971,2.3624535,8
1045,Victoire - Laffitte,48.87514373494672,2.338118505144376,8
1046,Eugène Varlin - Place de la Paix,48.792862,2.363093,2
1047,Rivoli - Musée du Louvre,48.86364636851945,2.33409583568573,14
1048,Alouettes - Maréchal de Lattre de Tassigny,48.85511009293948,2.4930700287222862,6
1049,Saint-Gilles - Turenne,48.858158956779,2.3647149920992,10
1050,Mairie du 4ème,48.85594991049653,2.3563823103904724,26
1051,Fille du Calvaire - Turenne,48.86210505412563,2.3649600148200993,19
1052,Tiron - Rivoli ,48.85569225323279,2.357905805110932,16
1053,Froidevaux - Boulard,48.835147319625,2.3294411972165,3
1054,Village Saint-Paul,48.852639866624806,2.3607301712036137,17
1055,Cesaria Evora - Rosa Parks,48.89717672825043,2.3745173960924144,4
1056,Château - République,48.905928,2.253629,15
1057,Bas - Gabriel Péri,48.91585580539625,2.2948095202445984,10
1058,Poulet - Barbès,48.887148,2.349064,0
1059,Choiseul - Quatre Septembre ,48.8699355331869,2.3359975218772893,11
1060,Mairie du Kremlin-Bicêtre,48.81191981537702,2.3570189997553825,6
1061,Porte de Saint Cloud - Parc des Princes,48.83866275706582,2.2525164484977727,15
1062,Square Pierre Lazareff,48.867141720745806,2.348393350839615,8
1063,Jean-Jacques Rousseau - Deux Ecus,48.86297805972131,2.3414635285735126,15
1064,Ventadour - Opéra,48.866810653323,2.334388448251871,24
1065,Saint-Bon - Rivoli,48.857999643315,2.3502172809763,8
1066,Grande Rue - Europe,48.8218104687602,2.205879874527455,1
1067,Édouard Vaillant - Place Jean Jaurès,48.86265537999924,2.2089037319128613,4
1068,Aboukir - Alexandrie,48.86868344444473,2.3502043269474897,12
1069,Alger - Rivoli,48.864773553495,2.3294493936128,9
1070,Mairie de Rosny-sous-Bois,48.871256519012,2.4865807592869,27
1071,Saint-Honoré - 29 juillet,48.86557114282421,2.330567417577153,13
1072,Gare des Vallées,48.913179,2.257726,7
1073,Choisy - Malmaisons,48.821919702956144,2.3633468834070914,8
1074,Oratoire - Rivoli,48.861342760889,2.3400047421455,12
1075,Filles Saint-Thomas - Place de la Bourse,48.868899890853,2.3397543845203,15
1076,Pau Casals - Neuve Tolbiac,48.8311602,2.3774395,30
1077,Chaussée d'Antin - Haussmann,48.87243,2.33359,18
1078,Mairie du 2ème,48.8672190355135,2.3404625437747044,25
1079,Place du Lieutenant Henri Karcher,48.863490871724466,2.3400671035051346,23
1080,Arthur Ranc - Hôpital Bichat,48.8978712500682,2.333521842956543,0
1081,Le Goff - Gay-Lussac,48.8461024009786,2.3412207886576653,25
1082,Saint-Placide - Cherche Midi,48.8490535919234,2.325317971408367,26
1083,Bréa - Raspail,48.842738478257814,2.329794221763396,3
1084,Amédée Huon - Fort d'Ivry,48.805131376899986,2.388489693403244,7
1085,Saint-Honoré - Musée du Louvre,48.86344313284792,2.3348781846405102,7
1086,Jouffroy d'Abbans - Villiers,48.88421554703737,2.3056533560156827,4
1087,Archives - Pastourelle,48.8623615,2.3595041,22
1088,Résistance - Parmentier,48.85965138131299,2.436705082654953,5
1089,Place de la Division Leclerc,48.793824988636516,2.2731140430551027,13
1090,Cardinal Lavigerie,48.832934193699835,2.402636749399156,16
1091,Coquillière - Louvre,48.86379590966231,2.3425736278295517,15
1092,Lampes,48.81152481985875,2.4017931148409843,36
1093,Place des Victoires,48.8660354,2.3420333,21
1094,Danielle Casanova - Opéra,48.867643242297284,2.3333894088864326,20
1095,Victor Massé - Jean-Baptiste Pigalle,48.8811043724,2.3366955667734,4
1096,Belles Feuilles - Place de Mexico,48.865804746474,2.2829206287861,2
1097,Place André Malraux,48.863925158727,2.3356226831675,10
1098,Les Halles - Saint-Eustache,48.86362695901683,2.342623919248581,6
1099,Jules Guesdes - Carnot,48.93828169931872,2.3508992046117783,14
1100,Simon Bolivar - Henri Turot,48.876887,2.374454,1
1101,Silly - Louis Blériot,48.83219045374266,2.2340199351310734,13
1102,Les Blagis,48.785205,2.302526,11
1103,Saint-Mande - Picpus,48.845127728278,2.4015686296482,7
1104,Sorbier - Gasnier-Guy,48.86521763101122,2.39365965127945,8
1105,Paganini - Davout,48.85135,2.412021,10
1106,Saint-Fiacre - Poissonière,48.870828911558,2.3459213599563,8
1107,Bagnolet - Place Saint-Blaise,48.85973,2.40334,1
1108,Gare RER - Maurice Grandcoing,48.813881,2.392429,33
1109,Jouffroy d'Abbans - Malesherbes,48.8850134,2.3070717,0
1110,Gobelins - Port-Royal,48.837135900263,2.3515201359987,11
1111,Place du Maréchal de Lattre de Tassigny,48.821707715257055,2.2853431485432423,15
1112,Belleville -  Pré Saint-Gervais,48.875565910073,2.3930460959673,4
1113,Manin - Secrétan,48.8791665,2.3787959,17
1114,Château de Vincennes,48.84423193255657,2.439209537709179,21
1115,Paix - Verdun,48.900504,2.261173,6
1116,Place Denfert-Rochereau,48.843252536286684,2.245987951755524,14
1117,Saint-Augustin,48.8762009747008,2.319786250591278,13
1118,Bobillot - Tolbiac,48.8255961335041,2.350204177200794,4
1119,Lecourbe - Convention,48.83923319241899,2.2915197908878326,33
1120,Dôme - République,48.832681,2.250257,7
1121,Chevaleret - Louise Weiss,48.83258651335057,2.371211388119954,18
1122,Roquette - Auguste Laurent,48.858001906023354,2.381797702650783,7
1123,Mathis - Flandre,48.8906429898976,2.3762554675340652,6
1124,Pyrénées - Cours de Vincennes,48.847796779935,2.4061721563339,5
1125,Suffren - La Motte-Piquet,48.85088123091874,2.301219999790192,20
1126,Général Leclerc - Bièvre,48.782414428747316,2.3166695237159733,2
1127,Place du Docteur Yersin,48.82010494991975,2.3725583776831627,20
1128,Taitbout - Châteaudun,48.876383969379,2.335356677933531,16
1129,Francoeur - Caulaincourt,48.8899944409612,2.342529706656933,2
1130,Léon Frot - Charonne,48.854963800335234,2.387217085372007,6
1131,Duméril - Jeanne d'Arc,48.83815160808658,2.357108449556404,13
1132,Dom-Pérignon - Gravelle,48.82548157443457,2.4098803102970128,8
1133,Félix Faure - Convention,48.841249336041045,2.288386600849503,37
1134,Franquet - Labrouste,48.83287705011431,2.306762784719467,3
1135,Maxime Gorki - Paul Vaillant-Couturier,48.79673508795443,2.3683342337608337,3
1136,Cambronne - Mademoiselle,48.843277330035214,2.30230766886348,10
1137,Balzac - Champs Elysées,48.872699639621,2.3001953959465,5
1138,Euryale Dehaynin - Loire,48.886248917304805,2.3774591088294987,2
1139,Riquet - Marx Dormoy,48.89021003702031,2.3601756244897842,2
1140,Pierre Charron - Champs-Elysées,48.870103359864,2.3043501377106,7
1141,Hauteville - Bonne Nouvelle,48.87077436024,2.3496496368327,8
1142,Place de la vache noire,48.81040517059777,2.327060401439667,14
1143,Place Tristan Bernard,48.8791964,2.2915403,13
1144,Place Charles Digeon,48.84354203133597,2.418427169322968,19
1145,Gouthière - Poterne des Peupliers,48.820507,2.351342,23
1146,Hector Malot - Daumesnil,48.84693552991762,2.3770876228809357,44
1147,Port Royal - Hôpital Cochin,48.838373233813286,2.340717874467373,20
1148,Place de la Nation - Taillebourg,48.8488408,2.3973043,25
1149,Gergovie - Alésia,48.83088717455243,2.318882101207347,0
1150,Jean de la Fontaine - Boulainvilliers,48.85264791461651,2.2758664190769196,21
1151,Gambetta - Tourelles,48.875337902264,2.4059921130538,0
1152,Place Eustache Deschamps,48.793855,2.336637,17
1153,Square des Amandiers,48.86615630668046,2.3891324177384377,4
1154,LCL Campus - Place Oscar Niemeyer,48.805342480621576,2.363983690738678,6
1155,Général De Gaulle - Vivien,48.83607420090204,2.4189166724681854,6
1156,Bercy - Traversiére,48.846192642574,2.3703800886869,9
1157,Buzenval - Vignoles,48.85385817168762,2.400004081428051,5
1158,Edouard Pailleron - Bouret,48.880597694070524,2.3769494891166687,0
1159,Pierre Joseph Desault,48.82110230800372,2.378775402903557,8
1160,Guillaume Tell - Parc Henri Barbusse,48.88958925894009,2.4198862910270695,2
1161,Olympiades,48.826764665199,2.3650860786438,8
1162,Pyrénées - Charles Renouvier,48.86095933229224,2.400421852042113,2
1163,Edith Cavell - Volta,48.901616564286975,2.269354350864887,18
1164,Hôtel de Ville de Vincennes,48.84827609706963,2.4398955702781677,1
1165,Maine - Jean Zay,48.837925263898,2.3225428909063,6
1166,Tombe Issoire - René Coty,48.83051287670899,2.3343613743782043,3
1167,Siam - La Pompe,48.861720329027264,2.275346568555312,2
1168,Marcadet - Ramey,48.890875,2.3449019,1
1169,George Sand - Jean de La Fontaine,48.84986918764119,2.268257387525699,14
1170,Porte de la Plaine,48.82805169605981,2.2924277186393742,14
1171,Alexandre Dumas - Place de la Réunion,48.85533710742046,2.3997703687646292,0
1172,Rome - Provence,48.874230055580306,2.325570111724113,19
1173,Enfants du Paradis - Peupliers,48.833122686454,2.2571459412575,19
1174,Marcel Pourtout - Édouard Manet ,48.87555620763429,2.1655967831611638,20
1175,Sahel - Général Michel Bizot,48.840872964793355,2.4044444784522057,14
1176,Saint-Séverin - Saint-Michel,48.852731305488,2.3440927639604,17
1177,Duhamel - André Gide,48.8365662244334,2.312707121097412,0
1178,Ancienne Mairie - André Morizet,48.838311,2.234077,14
1179,Marceau - Président Wilson,48.8652359,2.3002513,18
1180,Bourdonnais - Tour Eiffel,48.860897797941,2.295599598447,42
1181,Lavoisier - Missak Manouchian,48.86286468896063,2.495676465332508,14
1182,Guy Môquet - Compoint,48.89213559044868,2.32321947813034,3
1183,René Coty - Place Denfert-Rochereau,48.833056477316,2.3329411447048,22
1184,Place Aristide Briand,48.82189236575831,2.413003742694855,3
1185,Charonne - Alexandre Dumas,48.85607741505607,2.394869327545166,0
1186,Montreuil - République,48.85026349463687,2.4345204234123234,2
1187,Mairie de Bagnolet,48.868421318555306,2.417958788573742,17
1188,Constantine - Université,48.860680473738334,2.314848195584221,29
1189,Legendre - Nollet,48.887742186754224,2.320293079881375,0
1190,Assas - Rennes,48.8492084999386,2.32851454623001,3
1191,Rampal - Belleville,48.87302160156,2.3799109831452,6
1192,Fief - République,48.83170888166024,2.255771979689598,6
1193,Ménilmontant - Oberkampf,48.866617658681,2.3830134404158,7
1194,Reynaldo Hahn - Lagny,48.849266043601794,2.412330328844772,9
1195,Pasteur - Cotentin,48.8389284,2.316356,14
1196,M.- A. Lagroua Weill-Hallé -  F. Dolto,48.828595283857425,2.380220606266108,43
1197,Lorraine - Jean Jaurès,48.8863865,2.3825772,6
1198,Bois de Vincennes - Polygone,48.83544491617421,2.431421081436563,27
1199,Mairie du 20ème,48.865302324275,2.3990669846535,3
1200,Colonel Pierre Avia,48.8296843300915,2.275342586850291,17
1201,Championnet.,48.8953643,2.3498166,5
1202,Arthur Auger - Jean Jaurès,48.813736445585235,2.3069277405738835,1
1203,Dantzig - Lefebvre,48.83013921586756,2.295934036374092,8
1204,Verdier - République,48.81540376627718,2.3173937201499943,4
1205,Galilée - Vernet,48.871715878697,2.2985444962978,4
1206,Marché d'Auteuil,48.84842761367387,2.265253821160005,1
1207,Victor Hugo - Bineau,48.88758225888669,2.2783890366554265,4
1208,Volontaires - Vaugirard,48.84132050184004,2.30808901725357,2
1209,Passy - Place du Costa Rica,48.8584893,2.2839655,8
1210,Guillaume Bertrand - République,48.86382517434147,2.38090637715497,23
1211,Regard - Rennes,48.847385404956,2.3268555477262,20
1212,Louis Blanc - Aqueduc,48.88203018259946,2.3635615780949593,2
1213,Philippe-Auguste,48.851853488265,2.3932945355773,3
1214,Porte de Charenton,48.83124010585643,2.3989107459783554,21
1215,Hôtel de Ville de Rueil-Malmaison,48.878194,2.181724,13
1216,Arsonval - Falguière,48.84040040365445,2.313117867297474,3
1217,Etienne Dolet - Place Maurice Chevalier,48.86798303359366,2.3851405311143026,2
1218,Carpeaux - Place Jacques Froment,48.8906542,2.3309428,1
1219,Place d'Italie - Soeur Rosalie,48.831908520394,2.3546943448098,13
1220,Jean Bologne - Passy,48.857566889784465,2.280027395306772,1
1221,Saint-Marcel - Hôpital,48.83950442458303,2.360989417022932,13
1222,Geoffroy-Saint-Hilaire - Saint-Marcel,48.83907826424974,2.356877340669728,12
1223,Pyrénées - Dagorno,48.855425770695085,2.4051643162965775,2
1224,Place Saint-André des Arts,48.85288617388103,2.3426544293761253,25
1225,Saint-Maur - République,48.86418586145509,2.378317415714264,10
1226,Montparnasse -  Square Ozanam,48.843310567822,2.3265242949128,14
1227,Bobillot - Moulin des Prés,48.828657346203094,2.353020646316964,3
1228,Rond-Point Rhin et Danube,48.840452820991764,2.2280225157737736,48
1229,Flandre - Ourcq,48.89260159189023,2.3790915682911873,16
1230,Point du Jour - Jean Jaurès,48.828753141436465,2.245911467014621,7
1231,Commandant Charcot - Bretteville,48.87530570765423,2.2558460757136345,30
1232,Colisée - Champs-Elysées,48.870475399387,2.3076190799475,9
1233,Crimée - Ourcq,48.894104140316266,2.372946088467279,10
1234,Metz - Marne,48.891163,2.3865705,4
1235,Saint-Mandé - Docteur Arnold Netter,48.84462585769668,2.404946386814118,11
1236,Bertrand Sincholle - Henri Barbusse,48.89925982394349,2.3042294383049016,19
1237,Lacépède - Linné,48.8437035476636,2.354651279747486,12
1238,Jacquier - Didot,48.82953336292279,2.318179272115231,0
1239,Général Michel Bizot - Claude Decaen,48.83481262982544,2.400927788127704,21
1240,Ivry - Baudricourt,48.824695995415006,2.363106073577468,8
1241,Guynemer - Jardin du Luxembourg,48.8466127,2.3325478,22
1242,Square Gilbert Thomain,48.90717373809284,2.2695400938391685,8
1243,Magenta - Chabrol,48.876495350882,2.3560990020633,5
1244,Jessaint - Marx Dormoy,48.88484543106364,2.358930408954621,2
1245,République - Auguste Perret,48.78695280952244,2.3518594354391094,4
1246,Danielle Casanova - Ledru-Rollin,48.815783497876815,2.383259721100331,15
1247,Cossonnerie - Sébastopol,48.86132665908402,2.349419631063938,12
1248,Lucien Bossoutrot - Général Martial Vallin,48.836956046311,2.2741072252393,37
1249,Quai de Béthune - Pont de la Tournelle,48.85097433194032,2.356307208538055,21
1250,Ecole Vétérinaire,48.81488859822486,2.4224362157778994,33
1251,Belfort - Victor Hugo,48.9018492,2.3172724,20
1252,Stalingrad - Henri Luisette,48.78363092456589,2.366935946761926,6
1253,Youri Gagarine - Commune de Paris,48.782427463041,2.3939734697342,23
1254,Strasbourg - Saint-Denis,48.869601642433,2.3542908579111,9
1255,Arche - Léonard de Vinci,48.89790972494496,2.2383723043644914,15
1256,Parvis Robert Schuman - Roger Salengro,48.812657470558754,2.1921751275658607,0
1257,Champeaux - Gallieni,48.864459134684644,2.4161778017878532,4
1258,Wilson - Landy,48.91516726221354,2.357633225619793,6
1259,Chancé Milly - Cimetière Communal Sud,48.89687189382465,2.303922325372696,17
1260,Gustave Eiffel - Parc des Impressionnistes,48.90390619651018,2.2946908324956894,18
1261,Lally-Tollendal - Armand Carrel,48.88270066221072,2.374717555940151,0
1262,Réaumur - Montmartre,48.868230999759,2.3438260338876,5
1263,Barbès - Monique Maunoury,48.81552718820216,2.3687169334905405,3
1264,République - Louis Loucheur,48.823549261189,2.5101865455508,32
1265,Théâtre de La Garenne,48.905768309295276,2.2353921022349748,16
1266,Convention - Lourmel,48.84205504165568,2.2859910875558853,29
1267,Gare de Nogent-le-Perreux,48.83842553348809,2.493693307042122,31
1268,Nanterre - Université,48.901365,2.212693,18
1269,Square Victor Basch,48.91430486226092,2.2289156913757324,9
1270,Parc Pierre Lagravère,48.92650488131725,2.239069678491417,18
1271,Pierre Larousse - Raymond Losserand,48.83059564231877,2.3119183257222176,7
1272,Gare RER - Canadiens,48.81995307955795,2.464176752459464,7
1273,Quai de la Gare - Pont de Bercy,48.83730787972,2.3740861260598,16
1274,Cité de la Musique,48.888796556487,2.3925811931922,2
1275,Hôpital Robert Debré,48.88005222200894,2.4008650346327003,8
1276,Basilique,48.93626891059109,2.3588666820200914,16
1277,Quai Jules Guesde - Saint-Simon,48.80391487218989,2.408966162027371,22
1278,Karl Marx,48.784527937293184,2.3646667979455587,2
1279,Sèvres - Général Leclerc,48.83012155905476,2.231426239013672,27
1280,Parc Départemental des Hautes-Bruyères,48.793457901398945,2.3509012162685394,4
1281,Cours de Vincennes - Davout,48.847238029966,2.4107042336225,8
1282,Borrégo - Gambetta,48.87330497045532,2.4014145880937576,3
1283,Petit - Georges Thill,48.88603131999171,2.3895753175020222,9
1284,Gare de Bellevue,48.8192404685572,2.2295309230685234,3
1285,Kléber - National,48.906333898712234,2.2393910586833954,6
1286,Saint-Denis - Université,48.94563430946964,2.3638297989964485,7
1287,Halle Freyssinet - Parvis Alan Turing,48.832846814471,2.3711421713233,22
1288,Cours de Vincennes - Soult,48.846918761569,2.4105220288038,12
1289,Val-Fleury,48.807671407991,2.2407217696309,2
1290,Mûriers - Père Lachaise,48.864130509668044,2.39164982067019,3
1291,Clignancourt - Sofia,48.88511992309783,2.34719488842051,1
1292,BNF - Bibliothèque Nationale de France,48.8350268238,2.3760157451034,36
1293,Pereire - Saussure,48.888229075478,2.3101296275854,4
1294,Waldeck Rochet - Germaine Tillon,48.91105960199651,2.3676301538944244,3
1295,Saint-Marc - Feydeau,48.870310661422,2.3419791832566,2
1296,Place Amédée Gordini - Lefebvre,48.83061737745,2.2920634208276,8
1297,Dominique Pado - Croix Nivert,48.83648798164934,2.2897250577807426,20
1298,Guy Môquet - Parvis Georges Marchais,48.79518840095975,2.35943466424942,3
1299,Redoute - Les Courtilles,48.92986719451888,2.283669635653496,23
1300,Argenteuil - Voltaire,48.91864865955558,2.2814112156629562,6
1301,Hôtel de Ville de Chaville,48.80887149094033,2.188134044408798,5
1302,Pesaro - Préfecture,48.89577046284005,2.223908342421055,5
1303,Erasme - Ulm,48.84264375274712,2.3445946723222733,12
1304,Verdier - Jean Jaurès,48.81614048711214,2.3123561963438988,5
1305,Charles de Gaulle - Sablonville,48.87991924860035,2.2763770446181297,7
1306,Pasteur - Gambetta,48.84572797384512,2.4236011505126953,9
1307,Verdun - Carnot,48.808439376064946,2.373795211315155,11
1308,Pierre et Marie Curie - Julien Grimau,48.870714014863225,2.424097023904324,0
1309,Place de la Porte de Paris,48.93009363207303,2.3564037680625916,0
1310,Sèvres-Gallieni,48.837809408957,2.2281519323587,26
1311,Madeleine Michelis - Roule,48.88260431301364,2.2773634269833565,12
1312,Victor Hugo - Gare,48.92313395265796,2.2600970417261124,11
1313,Marx Dormoy - Château Sainte-Barbe,48.791782341055324,2.297856844961643,4
1314,Gare de Robinson,48.7799259211605,2.281828634440899,11
1315,Saint-Cloud - Hippodrome,48.85772148887421,2.2549109905958176,7
1316,Gare de Chaville Rive Gauche,48.80516030434533,2.188277207314968,2
1317,Voltaire - Anatole France,48.891999360256904,2.284262739121914,8
1318,André Theuriet - Blagis,48.77977325745441,2.3130525648593903,6
1319,Adolphe Lalyre - Armand Silvestre,48.90406266961591,2.273416221141815,17
1320,Jean-Baptiste Charcot - Sainte-Geneviève,48.90310883721567,2.278892956674099,14
1321,Mairie de La Garenne Colombes,48.90663823468682,2.24679596722126,10
1322,Pitié-Salpêtrière,48.83748810318667,2.365213818848133,24
1323,Place du 14 Juillet,48.8192669595252,2.30119988322258,1
1324,Henri Barbusse - Stalingrad,48.814183748660554,2.2872862592339516,2
1325,Saint Lambert - Blomet,48.83659148147257,2.2930556908249855,13
1326,Pierre Brossolette - 12 Février 1934,48.8176962416867,2.3076123744249344,4
1327,Mairie de Romainville,48.885109,2.435679,2
1328,Château - Place de Catalogne,48.836805542262,2.3185293003917,3
1329,Italie - Tolbiac,48.82557229464416,2.3576171323657036,3
1330,Stalingrad - Germaine Tailleferre,48.80257200481316,2.3786691203713417,2
1331,Boulard - Daguerre,48.83446472680611,2.3293386027216907,8
1332,Place Paul Delouvrier,48.89197621431365,2.3851288855075836,6
1333,Roger Salengro - Fontainebleau,48.814548697325,2.3611663654447,3
1334,Mazagran - Bonne Nouvelle,48.870047123655,2.3511248454452,9
1335,Place du Palais Royal,48.862382970647,2.3384822532535,1
1336,Stade Pershing,48.829107826857,2.4583535268903,0
1337,Madeleine Vionnet,48.902519074064,2.3740895837545,27
1338,Hippodrome Paris-Vincennes,48.82048387758518,2.446271181106568,19
1339,Ranelagh - Mozart,48.8554439,2.2704418,7
1340,Suresnes - Muette à Neuilly,48.86857040434825,2.266000919044018,9
1341,Place de la Bastille - Bourdon,48.852364355271,2.3681089282036,32
1342,Mstislav Rostropovitch - Berthier,48.892120821173975,2.309234105050564,6
1343,Georges V - François 1er,48.87034,2.30082,4
1344,George V - Christophe Colomb,48.87046,2.30104,5
1345,Rouget de Lisle,48.764615483395254,2.4071189761161804,31
1346,Eugène Reisz - Davout,48.85631874632638,2.410396970808506,2
1347,Tristan Tzara -  Tchaïkovski,48.89490221746837,2.3648490384221077,10
1348,Chabanais - Petits Champs,48.86703740186721,2.336716018617153,24
1349,Neuilly - Petit,48.898965361341254,2.29627937078476,11
1350,Parc Floral du Bel Air,48.839285711865735,2.438560165464878,9
1351,Place Jacques et Thérèse Tréfouël,48.842726498317,2.3125657439232,16
1352,Diane Arbus,48.898800717199,2.3524022474884987,30
1353,Verdun - Pierre et Marie Curie,48.812822398263286,2.3707106709480286,2
1354,Jean Jaurès - Paul Lafargue,48.884933177666,2.2484488785267,8
1355,Saint-Michel - Luxembourg,48.84501507626,2.3394941166043,7
1356,Hippodrome de Longchamp,48.86413226532,2.239905372262,3
1357,Berthier - Porte de Clichy,48.894222687781,2.3125872006816,15
1358,Capitaine Glarner - Gabriel Péri,48.902449900418745,2.3304807533425724,17
1359,Garibaldi - Gabriel Péri,48.905741911394,2.3316044208059,20
1360,Sèvres - Maréchal Juin,48.8324305,2.2292812,16
1361,Blanqui - Docteur Bauer,48.907735489085,2.3407192814591,5
1362,Victor Hugo - Paul Eluard,48.819602554907,2.4114319673051,17
1363,Bons Raisins - Voltaire,48.87282451461399,2.1947155570850896,2
1364,Hôtel de Ville de Saint-Ouen,48.911380185786,2.3340076807601,32
1365,Clef des Champs - Albert Dhalenne,48.914938,2.330665,17
1366,Nungesser - Santé,48.852335,2.448967,1
1367,Cartier Bresson - Denis Papin,48.902616,2.397814,6
1368,Champs de Manoeuvre - Cartoucherie,48.835261,2.447974,6
1369,Adrien Lesesne - Docteur Bauer,48.90263867304635,2.348248063431511,11
1370,Henri Barbusse - Bourguignons,48.91301722799713,2.2734212270774417,21
1371,Marceau Delorme - Pierre Brossolette,48.91206062860357,2.295897423568745,21
1372,Porte de Clichy - Place des Nations Unies,48.896737263309504,2.310542999196392,26
1373,Jean Jaurès - Place du Dr Roux,48.927567032796,2.2947337017374,25
1374,Sèvres Rive Gauche,48.821443218278,2.2150785306885,0
1375,Place du 17 Octobre,48.91962690034779,2.2978286134199792,12
1376,Gardenat Lapostol - Franklin Roosevelt,48.871839,2.222505,7
1377,Séminaire de Conflans - Liberté,48.823194,2.404179,6
1378,Bichat - Grange aux Belles,48.873688,2.365015,15
1379,Henri Barbusse - Gabriel Péri,48.801773795836,2.2874166362216,9
1380,Béranger - Félix Faure,48.80404828621485,2.2848263373723436,6
1381,Avenir,48.8103438,2.3003776,16
1382,Place Henri Dunant - Gare RER,48.787543,2.2907628,10
1383,Guy Môquet - Jean Moulin,48.940931521020836,2.363948999931771,23
1384,Parc des Pierrettes,48.7973062,2.2909969,3
1385,Hélène et François Missoffe - Emile Borel,48.89990653843488,2.321543991674844,23
1386,Châteaudun - Place de la Liberté,48.90970830301211,2.2454486480600626,21
1387,Edouard Poisson - Victor Hugo,48.91118557052621,2.379864752692811,16
1388,Place de la Paix - Abbé Saint-Pierre,48.86462724459225,2.2047570338469806,6
1389,Gare RER,48.896241412268,2.4595758300992,23
1390,Simone Signoret - Paris,48.903600624712865,2.465406596265139,17
1391,Oberkampf - République,48.865316087070475,2.3761147849099955,6
1392,Square Alban Satragne,48.875388227727,2.3559567333359,3
1393,Division Leclerc - Kléber,48.798666226364,2.2833752789972,6
1394,Marcel Monge - Marcel Dassault,48.86096384533371,2.2246733296048142,7
1395,Dora Maar - Nadia Guendouz,48.905452421305,2.3220406472683,27
1396,Raspail Barbès,48.8529945,2.4247387,13
1397,Fontaine du Tertre - Calvaire,48.8702539,2.2187778,1
1398,Place Jean Mermoz,48.9220937,2.2718348,22
1399,Vladimir Ilitch Lénine - Andrée Chedid,48.813240124373,2.3319716067039,7
1400,Quatre Vents - Carrefour de l'Odéon,48.851751374458864,2.338161695134053,23
1401,Paul Valery - Victor Hugo,48.87137406080164,2.2887128591537476,3
1402,Faubourg St-Antoine - Place de la Nation,48.8487726,2.393606,2
1403,Gare RER les Ardoines,48.783856363467,2.4079093717471,35
1404,Roland Garros - Jean Bouin,48.809460857173,2.2853198638301,3
1405,Martyrs de Châteaubriant - Jean Grandel,48.951432,2.211214,9
1406,Bourdon - Pont Morland,48.8478103,2.3659356,41
1407,Charles de Gaulle - Rue de l'Alma,48.896620592993,2.252313240191,7
1408,Gare RER - Général de Gaulle,48.933548439566,2.3064726536317,27
1409,Résistance - Romain Rolland,48.950873482371,2.2310190077797,23
1410,Quai de Sèvres - Manufacture Nationale,48.828688,2.22499,25
1411,Maréchal Leclerc de Hauteclocque - Marché Buzenval,48.858446,2.192077,3
1412,Place de l'Hôtel de Ville,48.8573314,2.351458,8
1413,Convention - Campus de Bobigny,48.914920058264,2.4172238067445,31
1414,Pablo Picasso - Maurice Thorez,48.906887812943,2.4489325365198,12
1415,Moscou - Edouard Vaillant,48.90755810177,2.4689837335263,8
1416,Bateliers - Quai de Seine,48.915817585516,2.3239533298594,8
1417,Georges Pompidou - Verdun,48.875481,2.232443,13
1418,Place Charles de Gaulle,48.826073335699,2.1894485725692,7
1419,Stalingrad - Général de Gaulle,48.823450589614,2.4965062363218,23
1420,Perrault - Place du Louvre,48.860273568996,2.3412468419093,9
1421,Place Nationale - Château-des-Rentiers,48.829268,2.365212,4
1422,Payenne - Square George Caïn,48.8578329,2.3622643,17
1423,Dupont de l'Eure - Gambetta,48.8679385,2.4003649,1
1424,Lamarck - Saint-Ouen,48.891334555236,2.3272445342326,2
1425,Bracion - Périphérique,48.826103771275,2.3004549373748,14
1426,Porte de Versailles,48.832324016657,2.2875617349045,16
1427,Gare de Courbevoie,48.8993867,2.2506506,3
1428,Marceau - Chaillot,48.868834023334,2.2986030816809,2
1429,Gare - Aristide Briand,48.821410564722,2.2555950104387,22
1430,Hispano Suiza - Parc des Bruyères,48.915885074177,2.2682306702811,28
1431,Docteur Calmette - Martre,48.898969358483,2.3086513252383,12
1432,Verger - Colonel Guichard,48.816376985087,2.2670380088932,6
1433,Gabriel Péri - Place de la Libération,48.819828421929,2.3117361743705,2
1434,Arsène Houssaye - Friedland,48.874510616163,2.2994716674148,7
